stop_id,stop_name,stop_lat,stop_lon,stop_desc
1000,Frederick / King,43.449667,-80.487195,EasyGO1000
1001,Frederick / Irvin,43.452327,-80.48418,EasyGO1001
1002,Frederick / Otto,43.453003,-80.482905,EasyGO1002
1003,Frederick / Samuel,43.454832,-80.479506,EasyGO1003
1004,Frederick / Merner,43.456218,-80.476897,EasyGO1004
1006,Frederick Street Mall,43.457928,-80.473572,EasyGO1006
1007,Frederick / Ann,43.459292,-80.469787,EasyGO1007
1008,Frederick / Bruce,43.4599946,-80.4675152,EasyGO1008
1009,Frederick / Lois,43.46092,-80.464627,EasyGO1009
1010,Frederick / River,43.461831,-80.46165777,EasyGO1010
1011,River / Islington,43.459288,-80.458902,EasyGO1011
1012,River / Manchester,43.458467,-80.454168,EasyGO1012
1013,River / Halliwell,43.457475,-80.450417,EasyGO1013
1014,River / Hickson,43.454288,-80.446665,EasyGO1014
1015,River / Path To Secord,43.45284,-80.445712,EasyGO1015
1016,River / Ottawa,43.451233,-80.444683,EasyGO1016
1017,River / Stanley Park Mall,43.448708,-80.443133,EasyGO1017
1018,River / Conway,43.447285,-80.442388,EasyGO1018
1019,River / Bradley,43.445728,-80.441425,EasyGO1019
1020,Kenora / Wren,43.444812,-80.439733,EasyGO1020
1021,Kenora / Parkview,43.445825,-80.437942,EasyGO1021
1022,Kenora / Old Chicopee,43.447135,-80.435653,EasyGO1022
1023,Old Chicopee / Edenbridge,43.447793,-80.436033,EasyGO1023
1024,Edenbridge / Darlington,43.448642,-80.433355,EasyGO1024
1025,Edenbridge / Oldfield,43.448917,-80.428858,EasyGO1025
1026,Oldfield / Batterswood,43.450825,-80.429715,EasyGO1026
1027,Oldfield / Casey,43.453003,-80.430713,EasyGO1027
1028,Shaftsbury / Holborn,43.453703,-80.43213,EasyGO1028
1029,Shaftsbury / Ottawa,43.454457,-80.433667,EasyGO1029
1030,Ottawa / Oldfield,43.455388,-80.432517,EasyGO1030
1031,Ottawa / Lackner,43.45671,-80.431618,EasyGO1031
1032,Lackner / Plaza,43.456695,-80.429128,EasyGO1032
1033,Lackner / Path To Gray,43.45587,-80.428012,EasyGO1033
1034,Lackner / Quaiser,43.451868,-80.42481,EasyGO1034
1035,Lackner / Oldfield,43.449693,-80.423827,EasyGO1035
1036,Lackner / Daimler,43.447017,-80.42144,EasyGO1036
1037,Lackner / Corfield,43.444772,-80.416537,EasyGO1037
1038,Fairway / Idle Creek,43.441435,-80.418078,EasyGO1038
1039,Fairway / Old Chicopee,43.436777,-80.42629,EasyGO1039
1040,Fairway / Grulke,43.433277,-80.429143,EasyGO1040
1041,Fairway / Morgan,43.430213,-80.431948,EasyGO1041
1042,Fairway / King,43.428827,-80.432143,EasyGO1042
1043,Fairway / King,43.427547,-80.432882,EasyGO1043
1044,Fairway / Wabanaki,43.422715,-80.437213,EasyGO1044
1045,Fairway / Fairview Park,43.421823,-80.439085,EasyGO1045
1046,Fairview Park Terminal,43.422838,-80.440838,EasyGO1046
1047,Fairway / Walmart,43.424008,-80.434677,EasyGO1047
1048,Fairway / King,43.428883,-80.431855,EasyGO1048
1049,Fairway / Morgan,43.430452,-80.431652,EasyGO1049
1050,Fairway / Thaler,43.432223,-80.42991,EasyGO1050
1051,Fairway / Grulke,43.433375,-80.428873,EasyGO1051
1052,Fairway / North Hill,43.435613,-80.42759,EasyGO1052
1053,Fairway / Fairway Cr.,43.441452,-80.417823,EasyGO1053
1054,Lackner / Corfield,43.44449,-80.415998,EasyGO1054
1055,Lackner / Daimler,43.446927,-80.420418,EasyGO1055
1056,Lackner / Zeller,43.449727,-80.42365,EasyGO1056
1057,Ottawa / Oldfield,43.456417,-80.432047,EasyGO1057
1058,Shaftsbury / Holborn,43.45361,-80.432197,EasyGO1058
1059,Oldfield / Jadestone,43.452395,-80.430773,EasyGO1059
1060,Oldfield / Drumoak,43.45078,-80.429868,EasyGO1060
1061,Oldfield / Springmount,43.448875,-80.426877,EasyGO1061
1062,Oldfield / Lackner,43.449802,-80.424072,EasyGO1062
1063,Edenbridge / Charleston,43.448948,-80.429197,EasyGO1063
1064,Edenbridge / Darlington,43.448697,-80.433367,EasyGO1064
1065,Edenbridge / Old Chicopee,43.448088,-80.435902,EasyGO1065
1066,Kenora / Wayne,43.445795,-80.43827,EasyGO1066
1067,Kenora / River,43.444765,-80.440157,EasyGO1067
1068,River / Bradley,43.445873,-80.441332,EasyGO1068
1069,River / Conway,43.44719,-80.442152,EasyGO1069
1070,River / Stanley Park Mall,43.449525,-80.443333,EasyGO1070
1071,River / Ottawa,43.451408,-80.444552,EasyGO1071
1072,River / Path To Secord,43.453358,-80.445827,EasyGO1072
1073,River / Halliwell,43.457685,-80.45041,EasyGO1073
1074,River / Manchester,43.458802,-80.45486,EasyGO1074
1075,River / Islington,43.45949,-80.459002,EasyGO1075
1076,Frederick / River,43.461923,-80.461955,EasyGO1076
1077,Frederick / Lois,43.461177,-80.46435,EasyGO1077
1078,Frederick / Ethel,43.460542,-80.466342,EasyGO1078
1079,Frederick / Bruce,43.460068,-80.467853,EasyGO1079
1080,Frederick / Edna,43.458515,-80.472747,EasyGO1080
1081,Frederick / Ann,43.459367,-80.470082,EasyGO1081
1082,Frederick / Filbert,43.456532,-80.476608,EasyGO1082
1083,Westwood / Westmount,43.446563,-80.523716,EasyGO1083
1084,Frederick / Gordon,43.45479,-80.479888,EasyGO1084
1085,Frederick / Lancaster,43.453507,-80.482377,EasyGO1085
1086,Frederick / Irvin,43.4524,-80.484435,EasyGO1086
1087,Frederick / Weber,43.451742,-80.485697,EasyGO1087
1088,Frederick / King,43.449915,-80.487397,EasyGO1088
1089,Benton / Charles,43.448535,-80.488312,EasyGO1089
1090,University / Seagram,43.469288,-80.538617,EasyGO1090
1093,Columbia / Phillip,43.476818,-80.5408,EasyGO1093
1094,Columbia / U.W. Optometry,43.475522,-80.544382,EasyGO1094
1096,Columbia / Village 1,43.47316,-80.550983,EasyGO1096
1097,Columbia / Ron Eydt Village,43.471577,-80.55539,EasyGO1097
1098,Columbia / Old Post,43.470135,-80.559598,EasyGO1098
1099,Columbia / Beechlawn,43.46958789,-80.56111218,EasyGO1099
1100,Columbia / Fischer-Hallman,43.466992,-80.568283,EasyGO1100
1101,Columbia / Gatestone,43.465907,-80.570812,EasyGO1101
1102,Columbia / Gatestone,43.46533398,-80.57294754,EasyGO1102
1104,Columbia / Cavendish,43.46401,-80.576783,EasyGO1104
1105,Columbia / Erbsville,43.462472,-80.580773,EasyGO1105
1106,Erbsville / Willowwood,43.465173,-80.584187,EasyGO1106
1107,Laurelwood / Erbsville,43.471462,-80.592458,EasyGO1107
1108,Laurelwood / Birchmount,43.472752,-80.589498,EasyGO1108
1109,Laurelwood / Brookmill,43.472042,-80.585092,EasyGO1109
1110,Laurelwood / Beaver Crk. Cr.,43.471615,-80.581587,EasyGO1110
1111,Laurelwood / Beaver Crk. Rd.,43.472233,-80.579393,EasyGO1111
1112,Laurelwood / Laurel Gate,43.474318,-80.574573,EasyGO1112
1113,Path To Laurel Gate,43.472557,-80.571113,EasyGO1113
1114,Fischer-Hallman / Gatestone,43.470683,-80.568997,EasyGO1114
1115,Fischer-Hallman / Columbia,43.468558,-80.567125,EasyGO1115
1116,Columbia / Fischer-Hallman,43.46799,-80.56497,EasyGO1116
1117,Columbia / Beechlawn,43.469093,-80.561785,EasyGO1117
1118,Columbia / Old Post,43.469858,-80.559685,EasyGO1118
1119,Columbia / Ron Eydt Village,43.471385,-80.55546,EasyGO1119
1120,Columbia / Village 1,43.473167,-80.55048,EasyGO1120
1121,Chesapeake / Chesapeake Cres,43.51099162,-80.51381115,EasyGO1121
1122,U.W. - B.C. Matthews Hall,43.474192,-80.545442,EasyGO1122
1123,U.W. - Davis Centre,43.47273,-80.541218,EasyGO1123
1124,U.W. - Engineering,43.469388,-80.539398,EasyGO1124
1125,Conestoga Mall Terminal,43.498032,-80.528561,EasyGO1125
1126,Conestoga Mall Terminal,43.498035,-80.52877,EasyGO1126
1127,Conestoga Mall Terminal,43.498042,-80.528997,EasyGO1127
1128,Conestoga Mall Terminal,43.498076,-80.52883,EasyGO1128
1129,Conestoga Mall Terminal,43.498071,-80.528619,EasyGO1129
1130,Conestoga Mall Terminal,43.498071,-80.528415,EasyGO1130
1131,Northfield / King,43.501633,-80.53392,EasyGO1131
1132,Northfield / Colby,43.500295,-80.537427,EasyGO1132
1133,Chesapeake / Seawind,43.51066959,-80.51389947,EasyGO1133
1134,Northfield / Parkside,43.497323,-80.545668,EasyGO1134
1135,Northfield / Weber,43.49618,-80.548988,EasyGO1135
1136,Northfield / Weber,43.495593,-80.550702,EasyGO1136
1137,Northfield / Northgate,43.494482,-80.55376,EasyGO1137
1138,Northfield / Skylark,43.493625,-80.556175,EasyGO1138
1139,Northlake / Black Oak,43.494805,-80.55713,EasyGO1139
1140,Northlake / Green Meadow,43.49483,-80.559548,EasyGO1140
1141,Northlake / Pine Island,43.493962,-80.562523,EasyGO1141
1142,Highpoint / Cornerbrook,43.493252,-80.564747,EasyGO1142
1143,Highpoint / Wintergreen,43.491195,-80.564522,EasyGO1143
1144,Highpoint / Rolling Hills,43.488437,-80.563307,EasyGO1144
1145,Highpoint / Dogwood,43.48682,-80.563315,EasyGO1145
1146,Highpoint / Toll Gate,43.484945,-80.559987,EasyGO1146
1147,Toll Gate / Glen Forrest,43.487193,-80.556668,EasyGO1147
1148,Glen Forrest / Teakwood,43.486143,-80.553573,EasyGO1148
1149,Cedarbrae / Glen Forrest,43.48567,-80.55156,EasyGO1149
1150,Cedarbrae/Heasley Pk. Trail,43.4879488,-80.55008486,EasyGO1150
1152,Cedarbrae / Sprucehill,43.489614,-80.54806,EasyGO1152
1153,Parkside / Glenelm,43.490203,-80.545167,EasyGO1153
1154,Parkside / Weber,43.492592,-80.544622,EasyGO1154
1155,Albert / Weber,43.491555,-80.537553,EasyGO1155
1156,Albert / Longwood,43.490535,-80.539497,EasyGO1156
1157,Albert / Quiet,43.487638,-80.541565,EasyGO1157
1158,Hazel / Wildwood,43.485729,-80.539087,EasyGO1158
1159,Hazel / Blythwood,43.485792,-80.537551,EasyGO1159
1160,Hazel / Tamarack,43.483953,-80.53549,EasyGO1160
1161,Hazel / Austin,43.481577,-80.53308,EasyGO1161
1162,Waterloo C.I.,43.478955,-80.531031,EasyGO1162
1163,Hazel / Hickory,43.477902,-80.530213,EasyGO1163
1164,Hickory / King,43.478035,-80.525662,EasyGO1164
1165,King / University,43.476328,-80.52507,EasyGO1165
1166,University / King,43.47603,-80.525778,EasyGO1166
1167,Laurier,43.475522,-80.528253,EasyGO1167
1168,Hazel / Hickory,43.477882,-80.53003,EasyGO1168
1169,Waterloo C.I. 2,43.478332,-80.530403,EasyGO1169
1170,Waterloo C.I. 1,43.478533,-80.530555,EasyGO1170
1171,Waterloo C.I.,43.479566,-80.531347,EasyGO1171
1172,Hazel / Austin,43.481543,-80.532912,EasyGO1172
1173,Hazel / Smallwood,43.483773,-80.535095,EasyGO1173
1174,Hazel / Blythwood,43.485675,-80.537293,EasyGO1174
1175,Hazel / Albert,43.485738,-80.539433,EasyGO1175
1176,Albert / Greenbrier,43.48815,-80.541385,EasyGO1176
1177,Albert / Longwood,43.490542,-80.539163,EasyGO1177
1178,Weber / Albert,43.492042,-80.537633,EasyGO1178
1179,Parkside / Weber,43.49266,-80.544787,EasyGO1179
1180,Northfield / Davenport,43.50351717,-80.52799477,EasyGO1180
1181,Cedarbrae / Mount Anne,43.490035,-80.546096,EasyGO1181
1182,Cedarbrae / Sprucehill,43.489822,-80.547727,EasyGO1182
1183,Cedarbrae/Heasley Pk. Trail,43.488012,-80.550237,EasyGO1183
1184,Cedarbrae / Glen Forrest,43.485683,-80.551702,EasyGO1184
1185,Glen Forrest / Brookhaven,43.487043,-80.555423,EasyGO1185
1186,Toll Gate / Glen Forrest,43.4873,-80.556698,EasyGO1186
1187,Toll Gate / Dogwood,43.486157,-80.559077,EasyGO1187
1188,Toll Gate / Highpoint,43.485105,-80.55966,EasyGO1188
1189,Highpoint / Dogwood,43.486712,-80.563085,EasyGO1189
1190,Highpoint / Rolling Hills,43.48914,-80.562982,EasyGO1190
1191,Highpoint / Northfield,43.491093,-80.564262,EasyGO1191
1192,Highpoint / Cornerbrook,43.493208,-80.564582,EasyGO1192
1193,Northlake / Highpoint,43.493622,-80.563955,EasyGO1193
1194,Northlake / Green Meadow,43.494712,-80.559533,EasyGO1194
1195,Northlake / Skylark,43.494148,-80.556752,EasyGO1195
1196,Northfield / Skylark,43.493527,-80.555927,EasyGO1196
1197,Northfield / Northgate,43.494357,-80.553547,EasyGO1197
1198,Northfield / Weber,43.49565116,-80.54970194,EasyGO1198
1199,Northfield / Weber,43.496233,-80.548257,EasyGO1199
1200,Northfield / Parkside,43.496948,-80.54621,EasyGO1200
1201,Northfield / Conestogo,43.500237,-80.537123,EasyGO1201
1202,Northfield / King,43.501425,-80.533822,EasyGO1202
1204,Davenport / Northfield,43.502517,-80.52807,EasyGO1204
1205,Davenport / Old Abbey,43.499948,-80.52561,EasyGO1205
1207,Davenport / Northfield,43.503923,-80.528718,EasyGO1207
1208,Frobisher / Davenport,43.505358,-80.529208,EasyGO1208
1209,151 Frobisher Dr.,43.506061,-80.52799,EasyGO1209
1210,Frobisher / Mcmurray,43.50709,-80.526702,EasyGO1210
1211,Northfield / Davenport,43.50311291,-80.52980583,EasyGO1211
1212,Kraus / Northfield,43.50147446,-80.530614,EasyGO1212
1215,Mcmurray / Northland,43.509115,-80.528723,EasyGO1215
1216,Bathurst / Mcmurray,43.511095,-80.531618,EasyGO1216
1217,Bathurst / Rankin,43.510245,-80.533948,EasyGO1217
1218,Rupert / Bathurst,43.508975,-80.536588,EasyGO1218
1219,Rupert / Northland,43.506807,-80.534284,EasyGO1219
1220,Northland / Frobisher,43.505877,-80.535618,EasyGO1220
1221,Wyman / Colby,43.504427,-80.538053,EasyGO1221
1222,633 Colby Dr.,43.506382,-80.5406,EasyGO1222
1223,Colby / Colby Crt.,43.507375,-80.542742,EasyGO1223
1224,612 Colby Dr.,43.505638,-80.542803,EasyGO1224
1225,601 Colby Dr.,43.503888,-80.54154,EasyGO1225
1226,Colby / Colby Dr.,43.500883,-80.53866,EasyGO1226
1227,Kumpf / Northfield,43.499817,-80.541767,EasyGO1227
1228,585 Kumpf Dr.,43.501265,-80.542702,EasyGO1228
1229,Kumpf / R.I.M.,43.50674855,-80.54607737,EasyGO1229
1230,Randall / Conrad,43.5021,-80.5498,EasyGO1230
1231,Randall / Weber,43.501223,-80.552262,EasyGO1231
1232,Northlake / Swallow,43.502452,-80.554887,EasyGO1232
1233,Northlake / Mayview,43.498857,-80.554092,EasyGO1233
1234,Golden Eagle / Weber,43.49848,-80.55178,EasyGO1234
1235,Queen / Rooshill,43.424274,-80.323206,EasyGO1235
1236,Queen / Harvey,43.429882,-80.313782,EasyGO1236
1237,Queen / Hungerford,43.433445,-80.30735,EasyGO1237
1238,Queen / Panabaker,43.435822,-80.304628,EasyGO1238
1239,River / Queen,43.439152,-80.30165,EasyGO1239
1240,Melran / Mccormick,43.438698,-80.298918,EasyGO1240
1241,Melran / Alderson,43.440101,-80.295513,EasyGO1241
1242,Mcmeeken / Werstine,43.43811,-80.294027,EasyGO1242
1243,Mcmeeken / Mccormick,43.436943,-80.293683,EasyGO1243
1244,Kerwood / Gees,43.430943,-80.293117,EasyGO1244
1245,Ellis / Kerwood,43.429097,-80.289172,EasyGO1245
1246,Ellis / Cooper,43.428063,-80.295037,EasyGO1246
1247,Cooper / Ellis,43.427858,-80.297755,EasyGO1247
1248,Cooper / Ontario,43.4305,-80.301247,EasyGO1248
1249,Cooper / Lewis,43.431798,-80.305808,EasyGO1249
1250,Queen / Adam,43.431183,-80.311242,EasyGO1250
1251,Queen / Harvey,43.429298,-80.31529,EasyGO1251
1252,Queen / Winston,43.427548,-80.318845,EasyGO1252
1253,Queen / Shepherd,43.422573,-80.325145,EasyGO1253
1254,Queen / Shepherd,43.423247,-80.32423,EasyGO1254
1255,Winston / Queen,43.426565,-80.318583,EasyGO1255
1256,Winston / Edward,43.424602,-80.316617,EasyGO1256
1257,Franklin / Winston,43.42183,-80.310213,EasyGO1257
1258,Franklin / Thomas,43.424345,-80.31005,EasyGO1258
1259,Franklin / Edward,43.427027,-80.309848,EasyGO1259
1260,Adam / Bergey,43.42965,-80.30826,EasyGO1260
1261,Rife / Kribs,43.429325,-80.304797,EasyGO1261
1262,Cooper / Rife,43.42968718,-80.30035497,EasyGO1262
1263,Cooper / Phin,43.42788096,-80.29793995,EasyGO1263
1264,Cooper / Adler,43.42558,-80.293662,EasyGO1264
1265,Winston / Cooper,43.422132,-80.292838,EasyGO1265
1266,Winston / Darren,43.421323,-80.29779,EasyGO1266
1267,Winston / Karl,43.421762,-80.301917,EasyGO1267
1268,Winston / Gunn,43.421378,-80.304445,EasyGO1268
1269,Winston / Westbury,43.421747,-80.307085,EasyGO1269
1270,Winston / Scottdale,43.421505,-80.31098,EasyGO1270
1271,Winston / Hipel,43.421907,-80.314563,EasyGO1271
1272,Winston / Edward,43.424145,-80.316075,EasyGO1272
1273,Winston / Queen,43.426893,-80.318827,EasyGO1273
1274,Queen / Rooshill,43.424292,-80.32333,EasyGO1274
1275,Holiday Inn / Groh,43.41879,-80.325147,EasyGO1275
1276,Groh / Holiday Inn,43.419163,-80.326232,EasyGO1276
1277,Groh / Holiday Inn,43.419323,-80.325685,EasyGO1277
1278,Groh / Holiday Inn,43.419118,-80.326117,EasyGO1278
1282,Eagle / Concession,43.40467,-80.348197,EasyGO1282
1283,Eagle / Shettleston,43.404093,-80.351697,EasyGO1283
1284,Eagle / Hexam,43.403585,-80.35481,EasyGO1284
1289,Laurel / Eagle,43.40332,-80.35546,EasyGO1289
1290,Eagle / Arlington,43.403978,-80.351891,EasyGO1290
1294,At Cambridge Markets,43.417372,-80.324295,EasyGO1294
1295,200 Holiday Inn Dr.,43.416402,-80.321398,EasyGO1295
1297,Jacob Hespeler S.S.,43.4171911,-80.31594557,EasyGO1297
1298,Holiday Inn / Franklin,43.417988,-80.311418,EasyGO1298
1299,Tannery / Queen,43.431587,-80.309243,EasyGO1299
1300,Guelph / Sheffield,43.434447,-80.311528,EasyGO1300
1301,Fisher Mills / Fearnwood,43.436422,-80.314835,EasyGO1301
1302,Fisher Mills / Scott,43.435448,-80.320128,EasyGO1302
1303,Scott / Nickolas,43.43752,-80.321073,EasyGO1303
1304,Scott / Milton,43.43906,-80.32024,EasyGO1304
1305,Poplar / Scott,43.441417,-80.317413,EasyGO1305
1306,Poplar / Dawn,43.445409,-80.316205,EasyGO1306
1307,Guelph / Fisher Mills,43.436957,-80.312165,EasyGO1307
1308,Guelph / Sheffield,43.434915,-80.311715,EasyGO1308
1309,Adam / Tannery,43.430485,-80.309755,EasyGO1309
1310,Franklin / Shamrock,43.42910151,-80.30965272,EasyGO1310
1312,Franklin / Thomas,43.424335,-80.310203,EasyGO1312
1313,Franklin / Winston,43.421783,-80.31037,EasyGO1313
1314,Holiday Inn / Cheval,43.417987,-80.31196,EasyGO1314
1315,Jacob Hespeler S.S.,43.417205,-80.31662,EasyGO1315
1316,The Holiday Inn,43.416512,-80.321533,EasyGO1316
1317,Heritage Bible College,43.417515,-80.324265,EasyGO1317
1318,Conestoga / Lena,43.392683,-80.315282,EasyGO1318
1319,Conestoga Transit Garage,43.394842,-80.316672,EasyGO1319
1320,Bishop / Collier-Macmillan,43.395937,-80.320837,EasyGO1320
1321,Bishop / Hespeler,43.39499,-80.325757,EasyGO1321
1322,Industrial / Bishop,43.394793,-80.329235,EasyGO1322
1323,1367 Industrial Rd.,43.396502,-80.329762,EasyGO1323
1324,Industrial / Langs,43.402378,-80.33158,EasyGO1324
1325,Eagle / Hespeler,43.407613,-80.329882,EasyGO1325
1326,Pinebush / Smartcentre,43.409082,-80.321437,EasyGO1326
1327,Pinebush / High Ridge,43.409917,-80.3169,EasyGO1327
1329,Pinebush / Balmoral,43.412682,-80.30126,EasyGO1329
1330,355 Pinebush Rd.,43.41311,-80.298437,EasyGO1330
1331,Pinebush / Fleming,43.41370532,-80.29487167,EasyGO1331
1332,Fleming / Thompson,43.4100035,-80.29346365,EasyGO1332
1333,Fleming / Sheldon,43.408788,-80.293065,EasyGO1333
1334,Bridge / Lexington,43.49796306,-80.50323824,EasyGO1334
1335,Sheldon / Balmoral,43.40729132,-80.30113485,EasyGO1335
1336,Sheldon / Franklin,43.406197,-80.307652,EasyGO1336
1337,Sheldon / Wolseley,43.40321,-80.312398,EasyGO1337
1338,Sheldon / Corydon,43.403142,-80.315672,EasyGO1338
1339,Conestoga / Sheldon,43.402043,-80.319252,EasyGO1339
1340,500 Conestoga Blvd.,43.40031,-80.318538,EasyGO1340
1341,Conestoga / Bishop,43.396665,-80.31768,EasyGO1341
1342,Dunbar / Conestoga,43.391293,-80.314528,EasyGO1342
1343,Can-Amera / Franklin,43.39356256,-80.3043277,EasyGO1343
1344,Saginaw / Green Vista,43.3908165,-80.29928486,EasyGO1344
1345,Saginaw / Cowan,43.38958247,-80.29619319,EasyGO1345
1346,Saginaw / Stonecairn,43.390142,-80.292855,EasyGO1346
1347,Saginaw / Chamberlin,43.389997,-80.288945,EasyGO1347
1348,Saginaw / Burnett,43.389545,-80.285482,EasyGO1348
1349,Saginaw / Light,43.390167,-80.282535,EasyGO1349
1350,Saginaw / Granite Hill,43.393492,-80.27774,EasyGO1350
1352,Essex Point / Burnett,43.396163,-80.28917,EasyGO1352
1354,Green Vista / Whittaker,43.394522,-80.294533,EasyGO1354
1356,St Benedict C.S.S. 2,43.391616,-80.300505,EasyGO1356
1357,Can-Amera / Franklin,43.393912,-80.303852,EasyGO1357
1358,Dunbar / Conestoga,43.391328,-80.315023,EasyGO1358
1359,Munch / Sekura,43.3832,-80.3175,EasyGO1359
1360,Munch / Elgin,43.38418,-80.312432,EasyGO1360
1361,Elgin / Regal,43.382662,-80.309812,EasyGO1361
1362,Elgin / Glamis,43.38111,-80.307262,EasyGO1362
1363,Glamis / Carter,43.381787,-80.304962,EasyGO1363
1364,Glamis / The Greenway,43.384015,-80.303455,EasyGO1364
1365,Glamis / Franklin,43.385225,-80.301457,EasyGO1365
1366,Robson / Burnett,43.386312,-80.297957,EasyGO1366
1367,Cowan / Robson,43.387133,-80.295384,EasyGO1367
1368,Cowan / Wallace,43.38418,-80.294483,EasyGO1368
1369,Burnett / Buchanan,43.383328,-80.29228,EasyGO1369
1370,Burnett / Chimney Hill,43.386238,-80.288258,EasyGO1370
1371,Burnett / Mctague,43.38885,-80.28531,EasyGO1371
1372,Saginaw / Fairgreen,43.389898,-80.2883,EasyGO1372
1373,Saginaw / Stonecairn,43.390437,-80.29201,EasyGO1373
1374,Saginaw / Cowan,43.38973,-80.296317,EasyGO1374
1375,St Benedict C.S.S. 4,43.391526,-80.300126,EasyGO1375
1376,St Benedict C.S.S. 3,43.391573,-80.300315,EasyGO1376
1377,St Benedict C.S.S. 1,43.39165,-80.300673,EasyGO1377
1378,Elgin / Franklin,43.39139,-80.302953,EasyGO1378
1379,Elgin / Bushnell,43.391123,-80.30861,EasyGO1379
1380,Elgin / Glenbrook,43.388972,-80.311752,EasyGO1380
1381,Elgin / Sekura,43.386723,-80.313593,EasyGO1381
1382,Munch / Kovac,43.384022,-80.313643,EasyGO1382
1383,Munch / Sekura,43.383192,-80.317802,EasyGO1383
1384,Hespeler / Munch,43.383328,-80.32022,EasyGO1384
1385,Cambridge Centre Terminal,43.391227,-80.319608,EasyGO1385
1386,Cambridge Centre Terminal,43.391255,-80.31942,EasyGO1386
1387,Cambridge Centre Terminal,43.391296,-80.319152,EasyGO1387
1388,Cambridge Centre Terminal,43.391406,-80.319366,EasyGO1388
1389,Cambridge Centre Terminal,43.39136,-80.319659,EasyGO1389
1390,Cambridge Centre Terminal,43.391317,-80.319935,EasyGO1390
1391,Cambridge Centre Terminal,43.391276,-80.320195,EasyGO1391
1392,Dunbar / Hespeler,43.39043,-80.324102,EasyGO1392
1393,Dunbar / Briarwood,43.390008,-80.32668,EasyGO1393
1394,Dunbar / Daleview,43.389357,-80.328913,EasyGO1394
1395,Dunbar / Biscayne,43.388882,-80.330847,EasyGO1395
1396,Dunbar / Eastdowns,43.388525,-80.333057,EasyGO1396
1397,Dunbar / Pine,43.38811,-80.335402,EasyGO1397
1398,Dunbar / St George,43.387712,-80.3377,EasyGO1398
1399,Dunbar / Grand Valley,43.38815,-80.341618,EasyGO1399
1400,Concession / Grand Valley,43.389513,-80.342392,EasyGO1400
1401,Bishop / Duke,43.390753,-80.346333,EasyGO1401
1402,Bishop / Hamilton,43.388447,-80.348428,EasyGO1402
1403,Hamilton / Montrose,43.38958,-80.35101,EasyGO1403
1404,Hamilton / Union,43.39061,-80.353122,EasyGO1404
1405,Beck / Hamilton,43.390108,-80.354282,EasyGO1405
1406,Homuth / Bernhardt,43.38878,-80.355175,EasyGO1406
1407,Homuth / Frederick,43.388482,-80.357727,EasyGO1407
1408,Rose / Lowther,43.389303,-80.36037,EasyGO1408
1409,Rose / Westminster,43.390753,-80.363195,EasyGO1409
1410,Rose / Argyle,43.391403,-80.36447,EasyGO1410
1411,Argyle / Vine,43.393058,-80.363097,EasyGO1411
1412,Argyle / Hamilton,43.394632,-80.36156,EasyGO1412
1413,Hamilton / Westminster,43.394138,-80.36024,EasyGO1413
1414,Westminster / King,43.395654,-80.358511,EasyGO1414
1415,Westminster / Duke,43.396587,-80.357615,EasyGO1415
1416,Westminster / Lawrence,43.3986,-80.35565,EasyGO1416
1417,Eagle / Speedsville,43.404625,-80.347618,EasyGO1417
1418,Concession / Garden,43.402607,-80.346813,EasyGO1418
1419,Concession / Dolph,43.400042,-80.346013,EasyGO1419
1420,Langs / Concession,43.39814,-80.344017,EasyGO1420
1421,Langs / Walter,43.39863,-80.341087,EasyGO1421
1422,Langs / Valentine,43.399108,-80.338213,EasyGO1422
1423,Langs / Trico,43.399628,-80.335197,EasyGO1423
1424,Langs / Industrial,43.400312,-80.331317,EasyGO1424
1425,Langs / Hespeler,43.401157,-80.327595,EasyGO1425
1426,Hespeler / Langs,43.400757,-80.325902,EasyGO1426
1427,480 Hespeler Rd.,43.397452,-80.324872,EasyGO1427
1428,Hespeler / Bishop,43.395928,-80.324343,EasyGO1428
1429,Langs / Industrial,43.400423,-80.33158,EasyGO1429
1430,Langs / Trico,43.399635,-80.336082,EasyGO1430
1431,Langs / Walter,43.39885,-80.340258,EasyGO1431
1432,Langs / Fairview Mennonite,43.398437,-80.342633,EasyGO1432
1433,Concession / Winterhalt,43.398698,-80.345453,EasyGO1433
1435,336 Eagle St. N.,43.401255,-80.36065,EasyGO1435
1436,Eagle / William,43.400075,-80.362027,EasyGO1436
1437,Eagle / King,43.398303,-80.363702,EasyGO1437
1438,Eagle / Hamilton,43.39644,-80.365488,EasyGO1438
1439,Eagle / Sherring,43.394505,-80.367483,EasyGO1439
1440,Preston H.S.,43.391183,-80.364293,EasyGO1440
1441,Lowther / Vine,43.390948,-80.359021,EasyGO1441
1442,Lowther / Hamilton,43.392543,-80.357517,EasyGO1442
1443,King / Montrose,43.39108,-80.349227,EasyGO1443
1444,Bishop / Duke,43.39053,-80.346372,EasyGO1444
1445,Bishop / Pineview,43.391625,-80.344247,EasyGO1445
1446,Fairview / Bishop,43.391753,-80.34192,EasyGO1446
1447,Fairview / Grand Valley,43.389022,-80.340902,EasyGO1447
1448,Dunbar / Grand Valley,43.387988,-80.341603,EasyGO1448
1449,Dunbar / St. George,43.38761,-80.337572,EasyGO1449
1450,Dunbar / Pine,43.387988,-80.335522,EasyGO1450
1451,Dunbar / Eastdowns,43.388338,-80.333547,EasyGO1451
1452,Dunbar / Biscayne,43.388732,-80.331053,EasyGO1452
1453,Dunbar / Briarwood,43.389923,-80.326677,EasyGO1453
1454,Dunbar / Hespeler,43.390347,-80.324058,EasyGO1454
1455,King / Westminster,43.396073,-80.358562,EasyGO1455
1456,Smartcentres Cambridge,43.4117,-80.323612,EasyGO1456
1457,Smartcentres South,43.410248,-80.322898,EasyGO1457
1458,Hespeler / Eagle,43.406692,-80.327903,EasyGO1458
1459,588 Hespeler Rd.,43.404173,-80.327063,EasyGO1459
1460,Hespeler / Wauchope,43.381163,-80.319957,EasyGO1460
1461,Hespeler / Wilmot,43.379808,-80.319585,EasyGO1461
1462,Hespeler / Jaffray,43.377242,-80.319012,EasyGO1462
1463,Water / Augusta,43.372382,-80.318462,EasyGO1463
1464,Galt C.I.,43.36981,-80.317463,EasyGO1464
1465,Ainslie / Simcoe,43.364768,-80.3143,EasyGO1465
1466,Ainslie / Park Hill,43.362708,-80.314153,EasyGO1466
1467,Ainslie / Dickson,43.359987,-80.313678,EasyGO1467
1468,Ainslie / Dickson,43.360054,-80.313507,EasyGO1468
1469,Ainslie / Colborne,43.361892,-80.313522,EasyGO1469
1470,Ainslie / Park Hill,43.363688,-80.314085,EasyGO1470
1471,Ainslie / Market,43.365565,-80.314563,EasyGO1471
1472,Water / Samuelson,43.3687,-80.316888,EasyGO1472
1473,Galt C.I.,43.37064,-80.317547,EasyGO1473
1474,Water / Todd,43.372143,-80.318095,EasyGO1474
1475,Hespeler / Avenue,43.376922,-80.31854,EasyGO1475
1476,167 Hespeler Rd.,43.381383,-80.31968,EasyGO1476
1477,Hespeler / Bishop,43.395792,-80.323905,EasyGO1477
1478,499 Hespeler Rd.,43.398573,-80.324797,EasyGO1478
1479,Hespeler / Langs,43.400472,-80.325418,EasyGO1479
1480,561 Hespeler Rd.,43.403548,-80.326417,EasyGO1480
1481,Hespeler / Eagle,43.407278,-80.327625,EasyGO1481
1482,Smartcentres South,43.410387,-80.322738,EasyGO1482
1483,Smartcentres Cambridge,43.411678,-80.324663,EasyGO1483
1484,Franklin / Holiday Inn,43.41744,-80.310437,EasyGO1484
1485,Franklin / Pinebush,43.411118,-80.308485,EasyGO1485
1486,Franklin / Stafford,43.40794,-80.307512,EasyGO1486
1487,Franklin / Sheldon,43.406523,-80.307098,EasyGO1487
1488,Franklin / Turnbull,43.403475,-80.3061,EasyGO1488
1489,Franklin / Raglin,43.40088,-80.30528,EasyGO1489
1490,Franklin / Bishop,43.397657,-80.30425,EasyGO1490
1491,Franklin / Elgin,43.3912,-80.302187,EasyGO1491
1492,Franklin / Glamis,43.385592,-80.301185,EasyGO1492
1493,Path To The Greenway,43.383278,-80.300255,EasyGO1493
1494,Franklin / Avenue,43.380067,-80.29899,EasyGO1494
1495,Franklin / Athlone,43.375257,-80.297082,EasyGO1495
1496,Clyde / Bluerock,43.371453,-80.293852,EasyGO1496
1497,Clyde / Bluerock,43.372542,-80.29021,EasyGO1497
1498,Clyde / Dobbie,43.373138,-80.28708,EasyGO1498
1499,Dobbie / Clyde,43.372852,-80.285292,EasyGO1499
1500,Dobbie / Orion,43.370223,-80.284273,EasyGO1500
1501,Dobbie / Savage,43.367803,-80.28335,EasyGO1501
1502,100 Savage Dr.,43.366552,-80.286278,EasyGO1502
1503,Franklin / Hilltop,43.364747,-80.29189,EasyGO1503
1504,Franklin / Mclaren,43.361673,-80.290613,EasyGO1504
1505,South Cambridge Shopping Ctr,43.3579,-80.289672,EasyGO1505
1506,Main / Alexander,43.357147,-80.293797,EasyGO1506
1507,Main / Elgin,43.356593,-80.296798,EasyGO1507
1508,Concession / Scrimger,43.355848,-80.301208,EasyGO1508
1509,Concession / Peck,43.355378,-80.304092,EasyGO1509
1510,Concession / Cameron,43.354863,-80.307122,EasyGO1510
1511,Ainslie Street Terminal,43.357171,-80.313522,EasyGO1511
1512,Ainslie Street Terminal,43.357334,-80.3135,EasyGO1512
1513,Ainslie Street Terminal,43.3575,-80.31348,EasyGO1513
1514,Ainslie Street Terminal,43.357659,-80.313456,EasyGO1514
1516,Ainslie Street Terminal,43.357626,-80.312972,EasyGO1516
1517,Ainslie Street Terminal,43.357581,-80.31275,EasyGO1517
1518,Ainslie Street Terminal,43.357407,-80.312815,EasyGO1518
1519,Ainslie Street Terminal,43.357276,-80.312954,EasyGO1519
1520,Ainslie Street Terminal,43.35713,-80.313083,EasyGO1520
1521,Ainslie Street Terminal,43.357017,-80.313194,EasyGO1521
1522,Ainslie Street Terminal,43.356965,-80.313486,EasyGO1522
1523,Ainslie / Walnut,43.355458,-80.314012,EasyGO1523
1524,Concession / Cameron,43.354693,-80.30764,EasyGO1524
1525,Concession / Peck,43.3553,-80.303903,EasyGO1525
1526,Concession / Scrimger,43.355722,-80.301545,EasyGO1526
1527,Main / Alexander,43.357055,-80.293553,EasyGO1527
1528,South Cambridge Shopping Ctr,43.357723,-80.28973,EasyGO1528
1529,Franklin / Moorefield,43.363012,-80.291022,EasyGO1529
1530,Franklin / Savage,43.364967,-80.291768,EasyGO1530
1531,55 Savage Dr.,43.365943,-80.288943,EasyGO1531
1532,111 Savage Dr.,43.366588,-80.285746,EasyGO1532
1533,Dobbie / Savage,43.367997,-80.283285,EasyGO1533
1534,Dobbie / Orion,43.369698,-80.283968,EasyGO1534
1535,Dobbie / Clyde,43.373213,-80.285338,EasyGO1535
1536,Clyde / Dobbie,43.373417,-80.286378,EasyGO1536
1537,Clyde / Bluerock,43.372567,-80.29067,EasyGO1537
1538,Clyde / Franklin,43.371447,-80.294337,EasyGO1538
1539,Franklin / Athlone,43.375732,-80.297143,EasyGO1539
1540,Franklin / Avenue,43.381108,-80.29918,EasyGO1540
1541,Franklin / Robson,43.385247,-80.300802,EasyGO1541
1542,Franklin / Saginaw,43.392358,-80.302303,EasyGO1542
1543,Franklin / Lindsay,43.396343,-80.303648,EasyGO1543
1544,Franklin / Bishop,43.39893,-80.304452,EasyGO1544
1545,Franklin / Raglin,43.40122,-80.305217,EasyGO1545
1546,Franklin / Turnbull,43.403633,-80.305995,EasyGO1546
1547,Franklin / Sheldon,43.405675,-80.306625,EasyGO1547
1548,Franklin / Stafford,43.407877,-80.307348,EasyGO1548
1549,Franklin / Pinebush,43.410413,-80.30808,EasyGO1549
1550,Franklin / Holiday Inn,43.417307,-80.310245,EasyGO1550
1551,Fairview Park Terminal,43.423214,-80.441326,EasyGO1551
1552,Fairview Park Terminal,43.423105,-80.441178,EasyGO1552
1553,Fairview Park Terminal,43.422908,-80.440976,EasyGO1553
1554,Fairview Park Terminal,43.423019,-80.441131,EasyGO1554
1555,Fairview Park Terminal,43.42313,-80.441286,EasyGO1555
1556,Fairview Park Terminal,43.423247,-80.441435,EasyGO1556
1557,Fairview Park Terminal,43.423055,-80.440865,EasyGO1557
1558,Fairview Park Terminal,43.423331,-80.441231,EasyGO1558
1559,Kingsway / Wilson,43.423065,-80.44293,EasyGO1559
1560,385 Fairway Rd.,43.421352,-80.440673,EasyGO1560
1561,Fairway / King,43.428238,-80.432223,EasyGO1561
1562,3065 King St. E.,43.427665,-80.429757,EasyGO1562
1563,3227 King St. E.,43.426163,-80.425108,EasyGO1563
1564,King / Hofstetter,43.425722,-80.423122,EasyGO1564
1565,King / River,43.425118,-80.419762,EasyGO1565
1566,King / Riverbank,43.419578,-80.409172,EasyGO1566
1567,King / Deer Ridge,43.410622,-80.399815,EasyGO1567
1568,Sportsworld Crossing,43.408463,-80.396352,EasyGO1568
1569,Sportsworld Crossing,43.40941194,-80.39307702,EasyGO1569
1570,Sportsworld Crossing,43.40922684,-80.39381845,EasyGO1570
1571,Sportsworld Crossing,43.40898556,-80.3938566,EasyGO1571
1573,Gateway Park / Sportsworld,43.407827,-80.391363,EasyGO1573
1574,Tu Lane / Gateway Park,43.406267,-80.38917,EasyGO1574
1575,Shantz Hill / Preston Pkwy.,43.399647,-80.375538,EasyGO1575
1576,Preston / Linden,43.399365,-80.376857,EasyGO1576
1577,Preston / Kiwanis Village,43.39853,-80.377978,EasyGO1577
1578,Preston / Parkview,43.396447,-80.377657,EasyGO1578
1579,Preston / Hillview,43.394808,-80.37774,EasyGO1579
1580,Preston / Woods,43.391887,-80.377486,EasyGO1580
1581,Preston / Fountain,43.39084,-80.375315,EasyGO1581
1582,Fountain / Bauman,43.395375,-80.373453,EasyGO1582
1583,Fountain / Shantz Hill,43.397713,-80.371205,EasyGO1583
1584,King / Fountain,43.399824,-80.368443,EasyGO1584
1585,King / Chopin,43.399033,-80.364447,EasyGO1585
1586,King / Waterloo,43.397257,-80.361195,EasyGO1586
1587,King / Westminster,43.395625,-80.358055,EasyGO1587
1588,King / Lowther,43.39418,-80.355288,EasyGO1588
1589,King / Dolph,43.39296747,-80.352948,EasyGO1589
1591,King / Bishop,43.38979,-80.346618,EasyGO1591
1592,King / Brower,43.388738,-80.344435,EasyGO1592
1593,King / Blue Heron,43.38769,-80.342343,EasyGO1593
1594,Coronation / Oriole,43.385672,-80.33928,EasyGO1594
1595,Coronation / Blue Heron,43.383617,-80.336123,EasyGO1595
1596,Galt Country Club,43.380667,-80.331128,EasyGO1596
1597,Cambridge Memorial Hospital,43.378437,-80.327413,EasyGO1597
1598,Coronation / Islandview,43.37691,-80.324802,EasyGO1598
1599,Coronation / Wright,43.374763,-80.32115,EasyGO1599
1600,Dundas / Haddington,43.372232,-80.316883,EasyGO1600
1601,Dundas / Hopeton,43.370457,-80.313927,EasyGO1601
1602,Dundas / Cambridge,43.3674,-80.3089,EasyGO1602
1603,Dundas / Beverly,43.3659,-80.3063,EasyGO1603
1604,Beverly / Kerr,43.363,-80.3089,EasyGO1604
1605,Wellington / Main,43.359238,-80.31141,EasyGO1605
1606,Beverly / Kerr,43.36199,-80.309622,EasyGO1606
1607,Beverly / Mill Creek Trail,43.364605,-80.307198,EasyGO1607
1608,Dundas / Grantham,43.366263,-80.306508,EasyGO1608
1609,Dundas / Cambridge,43.367545,-80.308725,EasyGO1609
1610,Dundas / Roxboro,43.370595,-80.313938,EasyGO1610
1611,Dundas / Jarvis,43.372242,-80.316608,EasyGO1611
1612,Coronation / Grandview,43.374147,-80.31965,EasyGO1612
1613,Coronation / Goldie,43.375533,-80.321978,EasyGO1613
1614,Coronation / Oliver,43.378152,-80.326393,EasyGO1614
1615,Cambridge Memorial Hospital,43.379688,-80.3289,EasyGO1615
1616,697 Coronation Blvd.,43.38102377,-80.33117177,EasyGO1616
1617,Coronation / Highland,43.382493,-80.333703,EasyGO1617
1618,Coronation / Blue Heron,43.38386,-80.335978,EasyGO1618
1619,Coronation / Oriole,43.385793,-80.338892,EasyGO1619
1620,King / Concession,43.387912,-80.342513,EasyGO1620
1621,King / Brower,43.388777,-80.344222,EasyGO1621
1622,King / Bishop,43.389973,-80.346597,EasyGO1622
1623,King / Montrose,43.391738,-80.35012,EasyGO1623
1624,King / Dolph,43.393177,-80.352915,EasyGO1624
1625,King / Lowther,43.394625,-80.355777,EasyGO1625
1626,King / Waterloo,43.397458,-80.361245,EasyGO1626
1627,King / Chopin,43.399072,-80.364283,EasyGO1627
1628,King / Fountain,43.399956,-80.368,EasyGO1628
1629,Fountain / Bauman,43.396142,-80.372962,EasyGO1629
1630,Preston / Fountain,43.390994,-80.375489,EasyGO1630
1631,Preston / Woods,43.392152,-80.377388,EasyGO1631
1632,Preston / Hillview,43.39467,-80.37765,EasyGO1632
1633,Preston / Parkview,43.397282,-80.377938,EasyGO1633
1634,Preston / Linden,43.399225,-80.37618,EasyGO1634
1635,Shantz Hill / Preston Pkwy.,43.399963,-80.375685,EasyGO1635
1636,Gateway Park / King,43.40583,-80.38609,EasyGO1636
1637,Gateway Park / Tu Lane,43.407668,-80.389818,EasyGO1637
1638,Gateway Park / Sportsworld,43.408103,-80.392465,EasyGO1638
1639,Sportsworld Crossing / King,43.409681,-80.397334,EasyGO1639
1640,King / Deer Ridge,43.41073,-80.399583,EasyGO1640
1641,King / Riverbank,43.420108,-80.40927,EasyGO1641
1642,Freeport Health Centre,43.424093,-80.412268,EasyGO1642
1643,King / River,43.425278,-80.419993,EasyGO1643
1644,King / Hofstetter,43.425752,-80.422578,EasyGO1644
1645,King / Heffner Crt.,43.426765,-80.426583,EasyGO1645
1646,King / Fairway,43.428268,-80.431093,EasyGO1646
1647,Freeport Health Centre,43.426027,-80.413402,EasyGO1647
1648,Morrison / Grand River,43.427855,-80.414458,EasyGO1648
1649,Path To Morrison Park,43.42999,-80.416372,EasyGO1649
1650,Morrison / Grand River,43.432092,-80.414592,EasyGO1650
1651,Quinte / Morrison,43.4336,-80.415405,EasyGO1651
1652,Morrison / Quinte,43.43117,-80.416263,EasyGO1652
1653,Path To Morrison Park,43.429848,-80.416362,EasyGO1653
1655,Grand River / Underhill,43.427755,-80.415438,EasyGO1655
1656,Grand River / River,43.42691,-80.419143,EasyGO1656
1657,Morgan / River,43.42768,-80.420965,EasyGO1657
1658,Morgan / Greendale,43.42733,-80.424747,EasyGO1658
1659,Morgan / Southill,43.428218,-80.427607,EasyGO1659
1660,Morgan / Fairway,43.429699,-80.430819,EasyGO1660
1661,Kingsway / Wilson,43.422813,-80.443038,EasyGO1661
1662,River / Fairway,43.434922,-80.428513,EasyGO1662
1663,River / Kinzie,43.436887,-80.430715,EasyGO1663
1664,River / Old Chicopee,43.439122,-80.43306,EasyGO1664
1665,River / Rennie,43.44311,-80.43899,EasyGO1665
1666,River / Kenora,43.444358,-80.440063,EasyGO1666
1667,Stanley Park Mall Terminal,43.448908,-80.444078,EasyGO1667
1668,Stanley Park Mall Terminal,43.448932,-80.44384,EasyGO1668
1669,Ottawa / River,43.450973,-80.443898,EasyGO1669
1670,Ottawa / Montcalm,43.452812,-80.438582,EasyGO1670
1671,Ottawa / Mcgee,43.453983,-80.435153,EasyGO1671
1672,Ottawa / Lackner,43.457883,-80.4312,EasyGO1672
1673,Keewatin / Ottawa,43.461025,-80.4278,EasyGO1673
1674,Keewatin / Stanmore,43.463098,-80.430055,EasyGO1674
1675,Keewatin / Dunnigan,43.463783,-80.432567,EasyGO1675
1676,Keewatin / Lackner,43.465118,-80.436453,EasyGO1676
1677,Path To Georgian,43.468475,-80.438675,EasyGO1677
1678,Lackner / Victoria,43.470897,-80.44066,EasyGO1678
1679,Victoria / Smetana,43.470813,-80.44442,EasyGO1679
1680,Natchez / Rothsay,43.468148,-80.448738,EasyGO1680
1681,Natchez / Matthew,43.465643,-80.44647,EasyGO1681
1682,Halifax / Natchez,43.463528,-80.445557,EasyGO1682
1683,Halifax / Confederation,43.461787,-80.445658,EasyGO1683
1684,Confederation / Lorraine,43.460242,-80.442412,EasyGO1684
1685,Lorraine / Heritage,43.460782,-80.439733,EasyGO1685
1686,Keewatin / Lackner,43.464982,-80.436105,EasyGO1686
1687,Keewatin / Glencliffe,43.463475,-80.431728,EasyGO1687
1688,Keewatin / Ottawa,43.460802,-80.42782,EasyGO1688
1689,Ottawa / Shaftsbury,43.454482,-80.434392,EasyGO1689
1690,Ottawa / Mcgee,43.453987,-80.435492,EasyGO1690
1691,Ottawa / Montcalm,43.45284,-80.438895,EasyGO1691
1692,Ottawa / Breckenridge,43.451828,-80.441787,EasyGO1692
1693,River / Rennie,43.442938,-80.439112,EasyGO1693
1694,River / Old Chicopee,43.438962,-80.433197,EasyGO1694
1695,River / Kinzie,43.436615,-80.43066,EasyGO1695
1696,River / Fairway,43.434643,-80.42857,EasyGO1696
1697,Wilson / Fairway,43.420553,-80.44274,EasyGO1697
1698,Wilson / Webster,43.416237,-80.442388,EasyGO1698
1699,Wilson/Kuntz Electroplating,43.413463,-80.442477,EasyGO1699
1700,Wilson / Wabanaki,43.41116,-80.442052,EasyGO1700
1701,Wabanaki / Kevco,43.409202,-80.442243,EasyGO1701
1702,Wabanaki / Manitou,43.40829,-80.447465,EasyGO1702
1703,Manitou / Sasaga,43.407097,-80.448785,EasyGO1703
1704,421 Manitou Dr.,43.404088,-80.448362,EasyGO1704
1705,Manitou / Cayuga,43.401483,-80.447778,EasyGO1705
1706,Doon Village / Millwood,43.398035,-80.446822,EasyGO1706
1707,Doon Village / Wheatfield Park,43.393467,-80.443803,EasyGO1707
1708,Doon Village / Bechtel,43.391789,-80.440746,EasyGO1708
1709,Bechtel / Pathfinder,43.390492,-80.443025,EasyGO1709
1710,Bechtel / Anvil,43.389977,-80.444883,EasyGO1710
1711,Bechtel / Wheatfield,43.389722,-80.449372,EasyGO1711
1712,Pioneer / Black Walnut,43.39157,-80.45046,EasyGO1712
1713,Pioneer / Vintage,43.39387288,-80.44854688,EasyGO1713
1714,Pioneer / Doon Village,43.39528,-80.445152,EasyGO1714
1715,Pioneer / Upper Canada,43.393938,-80.441627,EasyGO1715
1717,Pioneer/Old Carriage,43.394266,-80.433365,EasyGO1717
1718,Pioneer / Homer Watson,43.395605,-80.43151,EasyGO1718
1719,Green Valley / Pioneer,43.396097,-80.429912,EasyGO1719
1720,Green Valley / Arrowhead,43.395152,-80.426995,EasyGO1720
1721,Green Valley / Mill Park,43.395893,-80.42589,EasyGO1721
1722,Old Mill / Roos,43.394292,-80.417852,EasyGO1722
1723,Old Mill / Pinnacle,43.393372,-80.414295,EasyGO1723
1724,Pinnacle / Amherst,43.392182,-80.414307,EasyGO1724
1725,Pinnacle / Doon Valley,43.389872,-80.415377,EasyGO1725
1726,Doon Valley / Pinnacle,43.3898,-80.414374,EasyGO1726
1727,Doon Valley / Conestoga,43.390815,-80.41018,EasyGO1727
1728,Conestoga College Entrance,43.388705,-80.41127,EasyGO1728
1729,Conestoga College Residence,43.38523,-80.412057,EasyGO1729
1731,Conestoga College Rec Centre,43.389633,-80.408063,EasyGO1731
1732,Conestoga College Door 3,43.390297,-80.403508,EasyGO1732
1733,Conestoga College Daycare,43.391965,-80.404124,EasyGO1733
1734,Doon Valley / Orchard Mill,43.391205,-80.409805,EasyGO1734
1735,Doon Valley / Pinnacle,43.390217,-80.413482,EasyGO1735
1736,Pinnacle / Doon Valley,43.390028,-80.415297,EasyGO1736
1737,Pinnacle / Amherst,43.391403,-80.414752,EasyGO1737
1738,Pinnacle / Old Mill,43.393325,-80.414135,EasyGO1738
1739,Old Mill / Roos,43.394223,-80.417507,EasyGO1739
1740,Green Valley / Mill Park,43.395973,-80.426068,EasyGO1740
1741,Green Valley / Arrowhead,43.395543,-80.428302,EasyGO1741
1742,Green Valley / Pioneer,43.396107,-80.429745,EasyGO1742
1743,Pioneer / Homer Watson,43.395648,-80.431635,EasyGO1743
1744,Pioneer / Old Carriage,43.394285,-80.433662,EasyGO1744
1745,Pioneer / Bechtel,43.393533,-80.436891,EasyGO1745
1746,Pioneer / Bechtel,43.393663,-80.43698,EasyGO1746
1747,Pioneer / Upper Canada,43.39412,-80.441705,EasyGO1747
1748,Pioneer / Doon Village,43.395327,-80.44554,EasyGO1748
1749,Pioneer / Perin,43.39428,-80.44828,EasyGO1749
1750,Pioneer / Black Walnut,43.391645,-80.450683,EasyGO1750
1751,Bechtel / Sabrina,43.389137,-80.448528,EasyGO1751
1752,Bechtel / Anvil,43.389998,-80.444377,EasyGO1752
1753,Doon Village / Bechtel,43.391897,-80.440588,EasyGO1753
1754,Doon Village / Wheatfield Park,43.393583,-80.443617,EasyGO1754
1755,Doon Village / Farrier,43.398292,-80.446698,EasyGO1755
1756,Manitou / Cayuga,43.40185,-80.447687,EasyGO1756
1757,334 Manitou Dr.,43.405483,-80.448345,EasyGO1757
1758,Manitou / Wabanaki,43.406957,-80.448535,EasyGO1758
1759,Wabanaki / Kevco,43.40878,-80.443455,EasyGO1759
1760,Wabanaki / Wilson,43.409265,-80.441278,EasyGO1760
1761,Wilson / Wabanaki,43.410893,-80.441718,EasyGO1761
1762,Wilson /Kuntz Electroplating,43.413472,-80.442312,EasyGO1762
1763,Wilson / Goodrich,43.415405,-80.44227,EasyGO1763
1764,Wilson / Fairway,43.420792,-80.442552,EasyGO1764
1765,Forest Glen Terminal,43.41392,-80.478842,EasyGO1765
1766,Forest Glen Terminal,43.414117,-80.478895,EasyGO1766
1767,Forest Glen Terminal,43.414263,-80.478952,EasyGO1767
1768,Forest Glen Terminal,43.414458,-80.479017,EasyGO1768
1769,Forest Glen Terminal,43.414385,-80.478892,EasyGO1769
1770,Forest Glen Terminal,43.414213,-80.47885,EasyGO1770
1771,Forest Glen Terminal,43.414052,-80.478805,EasyGO1771
1772,Forest Glen Terminal,43.41389,-80.47875,EasyGO1772
1773,Strasburg / Old Country,43.410878,-80.476208,EasyGO1773
1774,Strasburg / Bleams,43.407405,-80.475148,EasyGO1774
1775,Strasburg / Bleams,43.406412,-80.47482,EasyGO1775
1776,Strasburg / Shoemaker,43.405623,-80.474402,EasyGO1776
1777,Mcintyre / Strasburg,43.404475,-80.474385,EasyGO1777
1778,Mcintyre / Mcbrine,43.403002,-80.477342,EasyGO1778
1779,222 Mcintyre Dr.,43.402877,-80.480323,EasyGO1779
1780,Mcintyre / Trillium,43.403457,-80.485038,EasyGO1780
1781,Trillium / Washburn,43.401057,-80.485467,EasyGO1781
1782,Trillium / Natural Area,43.398945,-80.482102,EasyGO1782
1783,680 Trillium Dr.,43.39894,-80.477368,EasyGO1783
1784,Trillium / Mcbrine,43.399795,-80.473807,EasyGO1784
1785,Trillium / Strasburg,43.400977,-80.468495,EasyGO1785
1786,Trillium / Shoemaker,43.401607,-80.466172,EasyGO1786
1787,Trillium / Adam Ferrie,43.402248,-80.463315,EasyGO1787
1788,Trillium / Steckle,43.402697,-80.460638,EasyGO1788
1789,Trillium / Trillium Park,43.399867,-80.459253,EasyGO1789
1790,End Of Groff Place,43.398735,-80.460748,EasyGO1790
1791,Trillium / Groff,43.399208,-80.458852,EasyGO1791
1792,Trillium / Steckle,43.40222,-80.459793,EasyGO1792
1793,Trillium / Adam Ferrie,43.402553,-80.462397,EasyGO1793
1794,Trillium / Shoemaker,43.401727,-80.466235,EasyGO1794
1795,Trillium / Strasburg,43.401035,-80.468637,EasyGO1795
1796,Trillium / Mcbrine,43.400003,-80.473257,EasyGO1796
1797,640 Trillium Dr.,43.399333,-80.476195,EasyGO1797
1798,830 Trillium Dr.,43.39905,-80.482147,EasyGO1798
1799,Trillium / Washburn,43.401493,-80.485648,EasyGO1799
1800,Mcintyre / Trillium,43.403293,-80.484252,EasyGO1800
1801,221 Mcintyre Dr.,43.402755,-80.480038,EasyGO1801
1802,Mcintyre / Mcbrine,43.403057,-80.476862,EasyGO1802
1803,Mcintyre / Strasburg,43.404472,-80.474062,EasyGO1803
1804,Strasburg / Mcintyre,43.404182,-80.473435,EasyGO1804
1805,Strasburg / Trillium,43.401755,-80.468572,EasyGO1805
1806,Strasburg / Battler,43.398638,-80.467535,EasyGO1806
1807,Huron Heights S.S.,43.394628,-80.46794,EasyGO1807
1808,Strasburg / Huron,43.3926,-80.466775,EasyGO1808
1809,Battler / Old Huron,43.39597,-80.461437,EasyGO1809
1810,Old Huron / Maxwell,43.39721,-80.457932,EasyGO1810
1811,Biehn / Carlyle,43.396023,-80.4555,EasyGO1811
1812,Biehn / Maxwell,43.3944,-80.455552,EasyGO1812
1813,Biehn / Marl Meadow,43.392182,-80.455908,EasyGO1813
1814,Biehn / Kilkerran,43.389415,-80.456202,EasyGO1814
1815,Biehn / Kilkerran,43.38639,-80.456198,EasyGO1815
1816,End Of Biehn Dr.,43.385542,-80.458825,EasyGO1816
1817,Biehn / Caryndale,43.386713,-80.455763,EasyGO1817
1818,Biehn / Robertson,43.389403,-80.456042,EasyGO1818
1819,Biehn / Marl Meadow,43.391372,-80.455957,EasyGO1819
1820,Black Walnut / Biehn,43.393135,-80.455148,EasyGO1820
1821,Black Walnut Place,43.392528,-80.45336,EasyGO1821
1822,Black Walnut / Pioneer,43.39136,-80.450672,EasyGO1822
1823,Bechtel / Doon Village,43.391957,-80.439926,EasyGO1823
1824,Pioneer / Old Carriage,43.3939,-80.434227,EasyGO1824
1825,Old Carriage Crt.,43.392087,-80.432585,EasyGO1825
1826,100 Old Carriage Dr.,43.391312,-80.431097,EasyGO1826
1827,Old Carriage/Homer Watson,43.390953,-80.427853,EasyGO1827
1828,Old Carriage/Homer Watson,43.391018,-80.428047,EasyGO1828
1829,119 Old Carriage Dr.,43.391498,-80.431277,EasyGO1829
1830,Old Carriage/Pioneer,43.393693,-80.433307,EasyGO1830
1831,Bechtel / Doon Village,43.391832,-80.440417,EasyGO1831
1832,Black Walnut / Pioneer,43.391513,-80.451182,EasyGO1832
1833,Black Walnut / Carlyle,43.392792,-80.453572,EasyGO1833
1834,Black Walnut / Biehn,43.393253,-80.455257,EasyGO1834
1835,Biehn / Carlyle,43.39548,-80.455363,EasyGO1835
1836,Biehn / Old Huron,43.397163,-80.455622,EasyGO1836
1837,Old Huron / Maxwell,43.397262,-80.45813,EasyGO1837
1838,Old Huron / Battler,43.395925,-80.460573,EasyGO1838
1839,Huron / Strasburg,43.392648,-80.46571,EasyGO1839
1840,Huron Heights S.S.,43.394878,-80.46784,EasyGO1840
1841,Strasburg / Battler,43.398702,-80.467292,EasyGO1841
1842,Strasburg / Trillium,43.400947,-80.467867,EasyGO1842
1843,1455 Strasburg Rd.,43.402655,-80.469412,EasyGO1843
1844,Strasburg / Mcintyre,43.404563,-80.473608,EasyGO1844
1845,Strasburg / Shoemaker,43.405985,-80.474382,EasyGO1845
1846,Bleams / Century Hill,43.408898,-80.46561,EasyGO1846
1847,Bleams / Homer Watson,43.41035,-80.459887,EasyGO1847
1848,Bleams / Otonabee,43.412212,-80.452405,EasyGO1848
1849,Bleams / Manitou,43.412547,-80.4501,EasyGO1849
1850,Manitou/Webster,43.416373,-80.450643,EasyGO1850
1851,Fairway / Food Basics,43.419483,-80.451733,EasyGO1851
1852,589 Fairway Rd. S.,43.419985,-80.448717,EasyGO1852
1853,Fairway / Wilson,43.42053,-80.445617,EasyGO1853
1854,Fairway / Wilson,43.420873,-80.444332,EasyGO1854
1855,500 Fairway Rd.,43.420382,-80.44735,EasyGO1855
1856,Fairway / Food Basics,43.41968,-80.451485,EasyGO1856
1857,Manitou / Fairway,43.418278,-80.45307,EasyGO1857
1858,Manitou / Webster,43.416423,-80.450942,EasyGO1858
1859,Manitou / Cress,43.415633,-80.449853,EasyGO1859
1860,Bleams / Manitou,43.412632,-80.450107,EasyGO1860
1861,Bleams / Otonabee,43.41229,-80.452637,EasyGO1861
1862,Bleams / Homer Watson,43.410487,-80.459917,EasyGO1862
1863,Bleams / Century Hill,43.408783,-80.466692,EasyGO1863
1864,Strasburg / Bleams,43.407643,-80.475013,EasyGO1864
1865,Strasburg / Old Country,43.411057,-80.476065,EasyGO1865
1866,Thaler / Fairway,43.434148,-80.431113,EasyGO1866
1867,Kinzie / Thaler,43.435477,-80.433197,EasyGO1867
1868,Kinzie / Obermeyer,43.434163,-80.43499,EasyGO1868
1869,Kinzie / Walker,43.433097,-80.436623,EasyGO1869
1870,Weber / Kinzie,43.432485,-80.43931,EasyGO1870
1871,Weber / Fergus,43.433675,-80.442185,EasyGO1871
1872,Weber / Arlington,43.433647,-80.444558,EasyGO1872
1873,Weber / Franklin,43.434513,-80.447507,EasyGO1873
1874,Weber / Euler,43.43561,-80.450977,EasyGO1874
1875,Weber / Wilfred,43.436287,-80.453045,EasyGO1875
1876,Weber / Ross,43.437128,-80.454733,EasyGO1876
1877,Montgomery / Weber,43.437745,-80.45874,EasyGO1877
1878,King / Montgomery,43.437505,-80.460237,EasyGO1878
1880,King / Rockway Ctr.,43.439837,-80.466293,EasyGO1880
1881,King / Sydney,43.44116,-80.469717,EasyGO1881
1882,King / Ottawa,43.442125,-80.472067,EasyGO1882
1883,King / Borden,43.442782,-80.47349,EasyGO1883
1884,King / Stirling,43.444185,-80.476733,EasyGO1884
1885,King / Pandora,43.445193,-80.478753,EasyGO1885
1886,King / Cameron,43.446087,-80.480633,EasyGO1886
1887,King / Cedar,43.44735,-80.483574,EasyGO1887
1888,King / Frederick,43.44914,-80.487367,EasyGO1888
1889,King / Queen,43.44970484,-80.48869933,EasyGO1889
1890,King / Ontario,43.450445,-80.490607,EasyGO1890
1891,King / College,43.451509,-80.493726,EasyGO1891
1892,King / Francis,43.452292,-80.496107,EasyGO1892
1893,Victoria,43.452862,-80.497921,EasyGO1893
1894,King / Breithaupt,43.453725,-80.500792,EasyGO1894
1895,King / Wellington,43.454293,-80.502501,EasyGO1895
1896,King / Wellington,43.454549,-80.503249,EasyGO1896
1897,King / Agnes,43.455008,-80.504835,EasyGO1897
1898,King / Central Fresh Market,43.455978,-80.507828,EasyGO1898
1900,Grand River Hospital,43.457088,-80.511103,EasyGO1900
1902,King / Union,43.458475,-80.515339,EasyGO1902
1904,King / Allen,43.460267,-80.518952,EasyGO1904
1905,King / William,43.461687,-80.521262,EasyGO1905
1906,Uptown Waterloo,43.463842,-80.52188,EasyGO1906
1907,Uptown Waterloo,43.464092,-80.521908,EasyGO1907
1908,King / Erb,43.465333,-80.522305,EasyGO1908
1909,King / Bridgeport,43.467892,-80.523,EasyGO1909
1910,King / Elgin,43.470105,-80.523578,EasyGO1910
1911,King / Marshall,43.471913,-80.523932,EasyGO1911
1913,King / University,43.47604,-80.52479,EasyGO1913
1914,King / Hickory,43.477728,-80.525157,EasyGO1914
1915,King / Columbia,43.481803,-80.526007,EasyGO1915
1916,King / Weber,43.484995,-80.526667,EasyGO1916
1917,King / Blue Springs,43.487478,-80.527263,EasyGO1917
1918,King / Manulife,43.491207,-80.528023,EasyGO1918
1919,King / Hwy 85 Ramp,43.494987,-80.528827,EasyGO1919
1920,Northfield / Wissler,43.505215,-80.525552,EasyGO1920
1921,Northfield / Bridge,43.51125,-80.521492,EasyGO1921
1922,Bridge / Labrador,43.510022,-80.51924,EasyGO1922
1925,Eastbridge / Acadia,43.504145,-80.50813,EasyGO1925
1926,Eastbridge / Mayflower,43.504483,-80.505975,EasyGO1926
1927,Eastbridge / Bonavista,43.506133,-80.50193,EasyGO1927
1928,Eastbridge / Bonavista,43.508598,-80.50048,EasyGO1928
1929,Eastbridge / New Bedford,43.51062,-80.500477,EasyGO1929
1931,University / Lexington,43.5043,-80.496627,EasyGO1931
1932,Lexington / Malabar,43.502657,-80.49848,EasyGO1932
1933,Lexington / Bertha,43.501448,-80.50022,EasyGO1933
1935,Dansbury / Meadowvale,43.498284,-80.499227,EasyGO1935
1938,Auburn / University,43.490498,-80.491558,EasyGO1938
1939,Auburn / Percheron,43.48881875,-80.49030554,EasyGO1939
1940,Bridle / Dartmoor,43.486597,-80.485895,EasyGO1940
1941,Bridge / Bridgeport P.S.,43.484192,-80.486928,EasyGO1941
1942,Bridge / Woolwich,43.482767,-80.484757,EasyGO1942
1943,Lancaster / Jones,43.4816,-80.48313,EasyGO1943
1944,Lancaster / General,43.479282,-80.48452,EasyGO1944
1945,Lancaster / Lang,43.478062,-80.484493,EasyGO1945
1946,Bridgeport / Lancaster,43.476513,-80.485118,EasyGO1946
1947,Bridgeport / Mackie,43.475548,-80.487322,EasyGO1947
1948,Bridgeport / Lang,43.474952,-80.490273,EasyGO1948
1949,Bridgeport / Goldbeck,43.472563,-80.498712,EasyGO1949
1950,Bridgeport / Bluevale,43.472512,-80.501147,EasyGO1950
1951,Bridgeport / Margaret,43.472357,-80.504592,EasyGO1951
1952,Bridgeport / Ellis,43.471638,-80.508025,EasyGO1952
1953,Bridgeport / L'Harmonie,43.471198,-80.509963,EasyGO1953
1954,Bridgeport / Weber,43.469837,-80.51365,EasyGO1954
1955,Bridgeport / Devitt,43.46917,-80.515232,EasyGO1955
1956,Bridgeport / Peppler,43.468115,-80.520247,EasyGO1956
1957,King / Bridgeport,43.467337,-80.523077,EasyGO1957
1958,King / Erb,43.464927,-80.522385,EasyGO1958
1959,King / William,43.461685,-80.521525,EasyGO1959
1960,Caroline / Erb,43.463747,-80.524582,EasyGO1960
1961,Erb / Father David Bauer,43.46414,-80.525997,EasyGO1961
1962,Erb / Wells,43.463217,-80.528128,EasyGO1962
1963,Erb / Avondale,43.46226,-80.53032,EasyGO1963
1964,Erb / Beverley,43.461153,-80.5329,EasyGO1964
1965,Erb / Dietz,43.46018,-80.535143,EasyGO1965
1966,Erb / Westmount,43.459055,-80.537748,EasyGO1966
1967,Erb / Mcdougall,43.457447,-80.540497,EasyGO1967
1968,Erb / Mulberry,43.456514,-80.542359,EasyGO1968
1969,Erb / Amos,43.455717,-80.544418,EasyGO1969
1970,Erb / Culpepper,43.454637,-80.547535,EasyGO1970
1971,Erb / Churchill,43.453375,-80.551127,EasyGO1971
1972,Fischer-Hallman / Erb,43.45291,-80.553685,EasyGO1972
1973,Keats Way / Fischer-Hallman,43.457883,-80.55867,EasyGO1973
1974,Keats Way / Sandford Fleming,43.455993,-80.562198,EasyGO1974
1975,Keats Way / Sandford Fleming,43.456957,-80.564897,EasyGO1975
1976,Keats Way / Leighland,43.457638,-80.568322,EasyGO1976
1977,Keats Way / Beechwood,43.4567,-80.571037,EasyGO1977
1978,Keats Way / Erbsville,43.455908,-80.573273,EasyGO1978
1979,Path To Lausanne,43.452757,-80.57191,EasyGO1979
1980,Erbsville / Brandenburg,43.451332,-80.572178,EasyGO1980
1981,Erbsville / Chablis,43.450037,-80.572765,EasyGO1981
1982,Erb / Ira Needles,43.446511,-80.570329,EasyGO1982
1983,Erb / Erbsville,43.448022,-80.566038,EasyGO1983
1984,Erb / Gateview,43.450587,-80.558591,EasyGO1984
1985,Gateview / Westvale,43.450058,-80.557611,EasyGO1985
1986,Westvale / Heather Hill,43.44886,-80.558158,EasyGO1986
1987,Westvale / Foxhill,43.447772,-80.559623,EasyGO1987
1988,Westvale / Edenvalley,43.445863,-80.56014,EasyGO1988
1989,Thorndale / Westvale,43.443738,-80.55924,EasyGO1989
1990,Thorndale / Rosemeadow,43.444953,-80.556683,EasyGO1990
1991,Thorndale / Appledale,43.446045,-80.553957,EasyGO1991
1992,Fischer-Hallman / Thorndale,43.44868142,-80.55003257,EasyGO1992
1993,Fischer-Hallman / Westridge,43.45066,-80.551705,EasyGO1993
1994,Erb / Fischer-Hallman,43.452602,-80.55283,EasyGO1994
1995,Erb / Roosevelt,43.45385,-80.549322,EasyGO1995
1996,Erb / Culpepper,43.454545,-80.54732,EasyGO1996
1997,Erb / Amos,43.45524,-80.545303,EasyGO1997
1998,Erb / Mcdougall,43.456555,-80.541867,EasyGO1998
1999,Erb / Westmount,43.45949,-80.536275,EasyGO1999
2000,Erb / Dietz,43.460688,-80.533593,EasyGO2000
2001,Erb / Roslin,43.461487,-80.531728,EasyGO2001
2002,Erb / Avondale,43.462487,-80.529438,EasyGO2002
2003,Erb / Euclid,43.463198,-80.527782,EasyGO2003
2004,Erb / Caroline,43.464143,-80.525622,EasyGO2004
2005,Caroline /Father David Bauer,43.463347,-80.524432,EasyGO2005
2006,Erb / King,43.465277,-80.521843,EasyGO2006
2007,Erb / Willow,43.46573,-80.51812,EasyGO2007
2008,Erb / Moore,43.466657,-80.515267,EasyGO2008
2009,Erb / Devitt,43.467675,-80.513498,EasyGO2009
2010,Erb / Weber,43.468655,-80.510435,EasyGO2010
2011,Erb / Ellis,43.470035,-80.506308,EasyGO2011
2012,Erb / Cardinal,43.470758,-80.502435,EasyGO2012
2013,Erb / Terrystone,43.471672,-80.499165,EasyGO2013
2014,Bridgeport / Leander,43.474935,-80.489532,EasyGO2014
2015,Bridgeport / Mackie,43.475297,-80.487593,EasyGO2015
2016,Bridgeport / Lancaster,43.476208,-80.48544,EasyGO2016
2020,Lancaster / Lang,43.477923,-80.484325,EasyGO2020
2021,Lancaster / General,43.479285,-80.484325,EasyGO2021
2022,Bridge / Woolwich,43.482795,-80.484398,EasyGO2022
2023,Bridge / Bridgeport P.S.,43.484315,-80.486892,EasyGO2023
2024,Bridle / Dartmoor,43.486075,-80.486767,EasyGO2024
2025,Auburn / Exmoor,43.487045,-80.485708,EasyGO2025
2026,Auburn / Percheron,43.488975,-80.490265,EasyGO2026
2027,Auburn / University,43.49065,-80.491592,EasyGO2027
2030,Dansbury / Canterbury,43.498052,-80.499417,EasyGO2030
2031,Meadowvale / Dansbury,43.498785,-80.498918,EasyGO2031
2032,Meadowvale / Lexington,43.500373,-80.500822,EasyGO2032
2033,Lexington / Bertha,43.501295,-80.500282,EasyGO2033
2034,Lexington / Malabar,43.502877,-80.497958,EasyGO2034
2035,University / Lexington,43.504595,-80.496582,EasyGO2035
2038,Path To St. Luke,43.508662,-80.500663,EasyGO2038
2039,Eastbridge / Windjammer,43.505638,-80.503407,EasyGO2039
2040,Eastbridge / Mayflower,43.504567,-80.50592,EasyGO2040
2041,Eastbridge / Acadia,43.504167,-80.50841,EasyGO2041
2042,Bridge / Chesapeake,43.505628,-80.510583,EasyGO2042
2044,Bridge / Labrador,43.51014,-80.519108,EasyGO2044
2045,King / Waterloo Inn,43.489672,-80.527735,EasyGO2045
2046,Conestogo / Colby,43.499703,-80.537457,EasyGO2046
2047,Conestogo / Durward,43.498483,-80.536587,EasyGO2047
2048,483 Conestogo Rd. W.,43.495753,-80.532875,EasyGO2048
2049,Conestogo / Bauer,43.496408,-80.531728,EasyGO2049
2050,Conestogo / King,43.498554,-80.532046,EasyGO2050
2051,Conestogo / King,43.498617,-80.53218,EasyGO2051
2052,Conestogo / Bauer,43.495837,-80.532947,EasyGO2052
2053,530 Conestogo Rd.,43.496668,-80.535205,EasyGO2053
2054,Conestogo / Durward,43.498572,-80.536503,EasyGO2054
2055,Conestogo / Northfield,43.499713,-80.537278,EasyGO2055
2060,Wyman / Colby,43.504283,-80.538005,EasyGO2060
2061,Rupert / Northland,43.506978,-80.53429,EasyGO2061
2062,Bathurst / Rupert,43.509382,-80.536043,EasyGO2062
2063,Bathurst / Rankin,43.510357,-80.53335,EasyGO2063
2064,Mcmurray / Bathurst,43.510798,-80.530778,EasyGO2064
2065,Mcmurray / Northland,43.509048,-80.528827,EasyGO2065
2066,Mcmurray / Frobisher,43.507282,-80.526847,EasyGO2066
2067,Frobisher / Davenport,43.505286,-80.529518,EasyGO2067
2068,Weber / Northfield,43.497602,-80.550452,EasyGO2068
2069,Northlake / Black Forest,43.502243,-80.556958,EasyGO2069
2070,Northlake / Fern,43.501218,-80.559893,EasyGO2070
2071,Northlake / Twinflower,43.498978,-80.564012,EasyGO2071
2072,Northlake / Burning Bush,43.497628,-80.567238,EasyGO2072
2073,Northlake / Conservation,43.495625,-80.566,EasyGO2073
2074,Conservation / Westmount,43.494307,-80.569652,EasyGO2074
2075,Conservation / Coldstream,43.49278,-80.573982,EasyGO2075
2077,Lake Louise / Glacier,43.49462,-80.577215,EasyGO2077
2078,Lake Louise / Osprey,43.496635,-80.572073,EasyGO2078
2079,Conservation / Westmount,43.494597,-80.56843,EasyGO2079
2080,Northlake / Conservation,43.495908,-80.566085,EasyGO2080
2081,Northlake / Twinflower,43.498635,-80.564637,EasyGO2081
2082,Northlake / Monarch,43.500217,-80.561388,EasyGO2082
2083,Northlake / Black Forest,43.502195,-80.556478,EasyGO2083
2084,Weber / Northfield,43.497617,-80.55065,EasyGO2084
2086,University / Woolwich St.,43.514277,-80.498555,EasyGO2086
2087,University / New Hampshire,43.51567,-80.500062,EasyGO2087
2088,Northfield / Wissler,43.505112,-80.525867,EasyGO2088
2089,King / Northfield,43.502133,-80.533728,EasyGO2089
2090,King / Northland,43.504827,-80.536775,EasyGO2090
2091,Farmers Market/ Benjamin,43.510057,-80.555878,EasyGO2091
2092,King / Henry,43.532993,-80.554562,EasyGO2092
2093,King / Cedar,43.537857,-80.553773,EasyGO2093
2094,King / Front,43.54058,-80.553365,EasyGO2094
2095,King / Northland,43.505035,-80.537332,EasyGO2095
2096,King / Northfield,43.50141,-80.533218,EasyGO2096
2097,Beverly / Dundas,43.366438,-80.305462,EasyGO2097
2098,Beverly/Samuelson,43.368718,-80.304048,EasyGO2098
2099,Samuelson / Beverly,43.370495,-80.303505,EasyGO2099
2100,Moscrip / Bronson,43.371253,-80.306917,EasyGO2100
2101,Elmwood / Brock,43.373232,-80.310385,EasyGO2101
2102,Elmwood / Jarvis,43.374737,-80.313247,EasyGO2102
2103,Elmwood / Brooklyne,43.376517,-80.316632,EasyGO2103
2104,Avenue / Gail,43.37835,-80.31090776,EasyGO2104
2105,Strasburg / Forest Glen Plaza,43.41396853,-80.47756831,EasyGO2105
2108,Elgin / Avenue,43.37845,-80.306377,EasyGO2108
2109,Elgin / Winter,43.376767,-80.305702,EasyGO2109
2110,Elgin / Galt,43.37394,-80.303458,EasyGO2110
2111,Elgin / Bronson,43.372402,-80.302885,EasyGO2111
2112,Clyde / Mill Creek,43.370977,-80.299903,EasyGO2112
2113,Franklin / Clyde,43.370785,-80.295112,EasyGO2113
2114,470 Franklin Blvd.,43.367685,-80.293018,EasyGO2114
2115,Franklin / Savage,43.365368,-80.292183,EasyGO2115
2116,Hilltop / Franklin,43.364393,-80.292462,EasyGO2116
2117,Hilltop / Alison,43.363898,-80.29488,EasyGO2117
2118,Lauris / Linnwood,43.362743,-80.296988,EasyGO2118
2119,Dundas / Dundas Lane,43.36271,-80.300677,EasyGO2119
2120,Chalmers / Dundas,43.362302,-80.301588,EasyGO2120
2121,Chalmers / Mcnaughton,43.360875,-80.300992,EasyGO2121
2122,Mcnaughton / Lincoln,43.36028,-80.302915,EasyGO2122
2123,Mcnaughton / Oak,43.359977,-80.305647,EasyGO2123
2124,Mcnaughton / Shade,43.360653,-80.307572,EasyGO2124
2125,Main / Harris,43.358887,-80.310477,EasyGO2125
2126,Grand / Victoria,43.352117,-80.317157,EasyGO2126
2127,Crombie / Grand,43.350933,-80.317177,EasyGO2127
2128,Middleton / Francis,43.348248,-80.318088,EasyGO2128
2129,First / Caen,43.346895,-80.319773,EasyGO2129
2130,Stanley / Glenmorris,43.347443,-80.322063,EasyGO2130
2131,Stanley / Tait,43.346782,-80.325512,EasyGO2131
2132,Stanley / St. Andrews,43.346495,-80.328495,EasyGO2132
2133,St. Gregorys / Caledon,43.348208,-80.328343,EasyGO2133
2134,Woodside / Victoria,43.349505,-80.329312,EasyGO2134
2135,142 Woodside Ave.,43.35025,-80.331962,EasyGO2135
2136,Woodside / Cedar,43.350632,-80.333678,EasyGO2136
2137,Southgate / Day,43.35215,-80.334337,EasyGO2137
2138,Churchill / Dale,43.353335,-80.333777,EasyGO2138
2139,Hillcrest / Churchill,43.354035,-80.33225,EasyGO2139
2140,Hillcrest / Highland,43.356112,-80.332932,EasyGO2140
2141,Salisbury / Southgate,43.356545,-80.336592,EasyGO2141
2142,Salisbury / Murray,43.356782,-80.339105,EasyGO2142
2143,Kent / Salisbury,43.355227,-80.341738,EasyGO2143
2144,Kent / Hillsboro,43.353403,-80.340965,EasyGO2144
2145,Kent / Sim,43.352287,-80.340915,EasyGO2145
2146,Kent / Cedar,43.349883,-80.339482,EasyGO2146
2147,Cedar / Southwood,43.350165,-80.336583,EasyGO2147
2148,Cedar / Woodside,43.35057,-80.334265,EasyGO2148
2149,Woodside / Cedar,43.349988,-80.332693,EasyGO2149
2150,Woodside / Victoria,43.349245,-80.329338,EasyGO2150
2151,St. Gregorys / St. Andrews,43.347905,-80.327917,EasyGO2151
2152,Stanley / Borden,43.346312,-80.328045,EasyGO2152
2153,Stanley / Tait,43.34668,-80.325525,EasyGO2153
2154,Stanley / Glenmorris,43.34732,-80.32223,EasyGO2154
2155,First / Caen,43.34682,-80.319702,EasyGO2155
2156,Middleton / Francis,43.348587,-80.318055,EasyGO2156
2157,Crombie / Grand,43.350916,-80.316834,EasyGO2157
2158,Grand / Cedar,43.353032,-80.31729,EasyGO2158
2159,Ainslie / Veterans,43.354475,-80.313477,EasyGO2159
2160,Oak / Main,43.357267,-80.30718,EasyGO2160
2161,Rich / Lincoln,43.358565,-80.30246,EasyGO2161
2162,Pollock / Lincoln,43.357968,-80.301578,EasyGO2162
2163,Pollock / Chalmers,43.358412,-80.300123,EasyGO2163
2164,Pollock / Elgin,43.358893,-80.297777,EasyGO2164
2165,Elgin / Dundas,43.360845,-80.298112,EasyGO2165
2166,Elgin / Linnwood,43.362018,-80.298598,EasyGO2166
2167,Elgin / Manchester,43.365038,-80.299832,EasyGO2167
2168,Elgin / Marion,43.366563,-80.300438,EasyGO2168
2169,Alison / Elgin,43.368168,-80.300328,EasyGO2169
2170,Alison / Radford,43.368808,-80.297187,EasyGO2170
2171,Alison / Lauris,43.367032,-80.29479,EasyGO2171
2172,Alison / Hilltop,43.364433,-80.29376,EasyGO2172
2173,Hilltop / Franklin,43.36435,-80.292267,EasyGO2173
2174,Franklin / Green Gate,43.356878,-80.286255,EasyGO2174
2175,Franklin / Dundas,43.354892,-80.287357,EasyGO2175
2176,Dundas / Franklin,43.355755,-80.289117,EasyGO2176
2177,Elgin / Elliott,43.35494,-80.295902,EasyGO2177
2178,Elgin / South,43.353702,-80.295403,EasyGO2178
2179,Elgin / Woolley,43.351875,-80.29467,EasyGO2179
2180,Elgin / Champlain,43.348192,-80.293223,EasyGO2180
2181,Champlain / Brierdale,43.34704,-80.296975,EasyGO2181
2182,Champlain / Christopher,43.346553,-80.298995,EasyGO2182
2183,Christopher / Foster,43.348447,-80.300417,EasyGO2183
2184,Christopher / Ballantyne,43.350428,-80.301195,EasyGO2184
2185,Christopher / Elliott,43.353953,-80.30261,EasyGO2185
2186,Main / Water,43.359037,-80.315072,EasyGO2186
2187,North Square / Grand,43.359225,-80.31783,EasyGO2187
2188,George / Blair,43.361503,-80.318717,EasyGO2188
2189,George / Hobson,43.363587,-80.318665,EasyGO2189
2190,George / James,43.366572,-80.320853,EasyGO2190
2191,Sunset / Saxony,43.368322,-80.324853,EasyGO2191
2192,Sunset / Bismark,43.370475,-80.326118,EasyGO2192
2193,Sunset / Blair Road P.S.,43.37258,-80.327552,EasyGO2193
2194,Sunset / Clearview,43.373758,-80.330522,EasyGO2194
2195,Clearview / Blair,43.372443,-80.33362,EasyGO2195
2196,Blair / Bismark,43.370847,-80.332097,EasyGO2196
2197,Blair / Kenmore,43.369503,-80.330407,EasyGO2197
2198,Blair / Sherwood,43.367765,-80.32828,EasyGO2198
2199,Blair / Grant,43.366732,-80.327037,EasyGO2199
2200,Blair / James,43.363907,-80.322992,EasyGO2200
2201,Blenheim / Lansdowne,43.361612,-80.32138,EasyGO2201
2202,Blenheim / Vair,43.361587,-80.325605,EasyGO2202
2203,Parkwood / Blenheim,43.359542,-80.332065,EasyGO2203
2204,Salisbury / Corwin,43.357222,-80.332275,EasyGO2204
2205,Hillcrest / Highland,43.356268,-80.333147,EasyGO2205
2206,Hillcrest / Churchill,43.353757,-80.332297,EasyGO2206
2207,Churchill / Westgate,43.35389,-80.330515,EasyGO2207
2208,Churchill / Forest,43.354722,-80.326698,EasyGO2208
2209,Churchill / Barrie,43.354715,-80.325333,EasyGO2209
2210,Churchill / Brant,43.354713,-80.32269,EasyGO2210
2211,St. Andrews / Grand,43.356507,-80.317897,EasyGO2211
2212,Main / Mill,43.358818,-80.313267,EasyGO2212
2213,Main / Bruce,43.356925,-80.307672,EasyGO2213
2214,Main / Peck,43.356562,-80.304448,EasyGO2214
2215,Main / Lincoln,43.356247,-80.301283,EasyGO2215
2216,Main / Elgin,43.356565,-80.296663,EasyGO2216
2217,Main / Franklin,43.358248,-80.286907,EasyGO2217
2218,Path To Elliott,43.353522,-80.288838,EasyGO2218
2219,Franklin / Morning,43.351493,-80.289607,EasyGO2219
2220,Champlain / Franklin,43.348318,-80.287612,EasyGO2220
2221,Champlain / Carlos,43.34919,-80.284602,EasyGO2221
2222,Lisbon Pines / Champlain,43.34955,-80.281205,EasyGO2222
2223,Lisbon Pines / Santa Maria,43.34646,-80.280827,EasyGO2223
2224,Lisbon Pines / Myers,43.344857,-80.280268,EasyGO2224
2225,Gatehouse / Mcnichol,43.343165,-80.279163,EasyGO2225
2226,Gatehouse / Wheeler,43.341312,-80.280263,EasyGO2226
2227,Gatehouse / Flockhart,43.341585,-80.282627,EasyGO2227
2228,Gatehouse / Myers,43.34372,-80.284105,EasyGO2228
2229,Myers / Franklin,43.343637,-80.285745,EasyGO2229
2230,Myers / Elgin,43.342687,-80.291482,EasyGO2230
2231,Myers / Greenbrier,43.342247,-80.29406,EasyGO2231
2233,Christopher / Myers,43.341467,-80.300803,EasyGO2233
2234,Christopher / Tutton,43.343933,-80.300675,EasyGO2234
2235,Champlain / Christopher,43.346338,-80.30014,EasyGO2235
2236,Mcdonald / Dorset,43.34624,-80.303125,EasyGO2236
2237,Glenview / Mcdonald,43.348073,-80.304885,EasyGO2237
2238,Glenview / Henry,43.347335,-80.308947,EasyGO2238
2239,Glenview / Albert,43.347108,-80.310308,EasyGO2239
2240,Albert / Ballantyne,43.348713,-80.311027,EasyGO2240
2241,Ballantyne / Mckay,43.34949,-80.307065,EasyGO2241
2242,Mckay / South,43.350935,-80.30739,EasyGO2242
2243,Centre / Elliott,43.352802,-80.308572,EasyGO2243
2244,Centre / Concession,43.354058,-80.308945,EasyGO2244
2245,Grand / South Square,43.358507,-80.317615,EasyGO2245
2246,St. Andrews / George,43.35655,-80.318213,EasyGO2246
2247,St. Andrews / Fraser,43.354432,-80.321975,EasyGO2247
2248,St. Andrews / Cedar,43.352678,-80.323575,EasyGO2248
2249,Westgate Ctr.,43.351563,-80.329355,EasyGO2249
2250,Southwood / Cedar,43.349765,-80.336212,EasyGO2250
2251,Southwood / Westwood,43.346472,-80.335105,EasyGO2251
2252,Southwood / Wedgewood,43.344835,-80.334095,EasyGO2252
2253,Wedgewood / Grand Ridge,43.342925,-80.337522,EasyGO2253
2254,Grand Ridge / Mark,43.341558,-80.33595,EasyGO2254
2255,Grand Ridge / St. Andrews,43.340738,-80.334135,EasyGO2255
2256,Stirling Macgregor,43.338893,-80.33241,EasyGO2256
2257,Grand Ridge / Oak Hill,43.336473,-80.330733,EasyGO2257
2258,Culham / Ridgewood,43.339553,-80.329757,EasyGO2258
2259,Culham / Ridgewood,43.340012,-80.327078,EasyGO2259
2260,Culham / Tait,43.340993,-80.32386,EasyGO2260
2261,Tait / Fourth,43.343533,-80.324195,EasyGO2261
2262,Fourth / Vincent,43.342903,-80.327752,EasyGO2262
2263,Fourth / St. Andrews,43.34317,-80.331443,EasyGO2263
2264,Southwood / St. Andrews,43.344695,-80.331595,EasyGO2264
2265,Southwood / Westwood,43.346087,-80.334843,EasyGO2265
2266,Southwood / Cedar,43.350137,-80.336173,EasyGO2266
2267,Westgate Ctr.,43.351588,-80.328497,EasyGO2267
2268,Grand / South Square,43.35859,-80.317492,EasyGO2268
2269,Christopher / Elliott,43.354137,-80.302748,EasyGO2269
2270,Christopher / South,43.352072,-80.301957,EasyGO2270
2271,Ballantyne / East,43.350275,-80.302827,EasyGO2271
2272,Ballantyne / Mcdonald,43.349923,-80.304908,EasyGO2272
2273,Ballantyne / Mckay,43.349588,-80.306918,EasyGO2273
2274,Mckay / Glenview,43.347808,-80.306497,EasyGO2274
2275,Glenview / Mcdonald,43.347993,-80.304617,EasyGO2275
2276,Mcdonald / Dorset,43.346405,-80.303265,EasyGO2276
2277,Champlain / Christopher,43.346242,-80.299985,EasyGO2277
2278,Christopher / Tutton,43.343818,-80.300958,EasyGO2278
2279,Christopher / Myers,43.341327,-80.300928,EasyGO2279
2280,Myers / Woodland,43.340192,-80.306097,EasyGO2280
2281,Edgemere / Sandalwood,43.339282,-80.307928,EasyGO2281
2282,Edgemere / Ploughmans,43.338035,-80.307013,EasyGO2282
2283,Edgemere / Langlaw,43.335867,-80.306327,EasyGO2283
2284,Langlaw / Enfield,43.336132,-80.30371,EasyGO2284
2285,Christopher / Wheatland,43.338007,-80.29948,EasyGO2285
2286,Christopher / Myers,43.340515,-80.300523,EasyGO2286
2287,Myers / Lorraine,43.3415,-80.297702,EasyGO2287
2288,Myers / Greenbrier,43.342228,-80.293497,EasyGO2288
2289,Myers / Cheese Factory,43.3426,-80.2912,EasyGO2289
2290,Myers / Franklin,43.342993,-80.288967,EasyGO2290
2291,Franklin / Myers,43.34378,-80.287082,EasyGO2291
2292,Franklin / Copperfield,43.34672,-80.288238,EasyGO2292
2293,Champlain / Bakersfield,43.348497,-80.289428,EasyGO2293
2294,Champlain / Elgin,43.348058,-80.291935,EasyGO2294
2295,Elgin / Woolley,43.351428,-80.294362,EasyGO2295
2296,Waterloo / Guelph,43.45993933,-80.50288706,EasyGO2296
2297,Elgin / Elliott,43.354412,-80.295585,EasyGO2297
2298,Elgin / Main,43.356437,-80.296402,EasyGO2298
2299,South / Chalmers,43.35311694,-80.29765853,EasyGO2299
2300,Chalmers / Main,43.356033,-80.298927,EasyGO2300
2301,Main / Lowrey,43.35629,-80.300775,EasyGO2301
2302,Main / Cathay,43.356538,-80.303102,EasyGO2302
2303,Main / Arthur White,43.356812,-80.30622,EasyGO2303
2304,Main / Spruce,43.357148,-80.307967,EasyGO2304
2305,Waterloo / Peltz,43.46115572,-80.50451466,EasyGO2305
2306,Moore / Roger,43.46141455,-80.50917914,EasyGO2306
2307,Waterloo / Peltz,43.46103138,-80.5045196,EasyGO2307
2308,Homer Watson,43.387473,-80.411953,EasyGO2308
2309,Waterloo / Guelph,43.45979759,-80.50290472,EasyGO2309
2310,Cherry Blossom / Barnes,43.415303,-80.383427,EasyGO2310
2311,Shanley / Moore,43.45665023,-80.50213401,EasyGO2311
2312,Cherry Blossom / Fountain,43.4126,-80.3751,EasyGO2312
2314,Fountain / Toyota Gate 1,43.41628,-80.37569,EasyGO2314
2315,Fountain / Toyota Gate 2,43.418968,-80.376648,EasyGO2315
2316,Loblaws,43.42906,-80.379022,EasyGO2316
2317,Maple Grove / Fountain,43.423803,-80.38154,EasyGO2317
2318,Maple Grove / Cherry Blossom,43.41642497,-80.38766914,EasyGO2318
2319,Weber / Queen,43.45187,-80.487045,EasyGO2319
2320,Queen / Ahrens,43.453217,-80.486393,EasyGO2320
2321,Queen / Margaret,43.454655,-80.485306,EasyGO2321
2322,Queen / St. Leger,43.456765,-80.483491,EasyGO2322
2323,Queen / Lancaster,43.457837,-80.482622,EasyGO2323
2324,Victoria / Chestnut,43.459177,-80.480408,EasyGO2324
2325,Victoria / Filbert,43.459703,-80.478782,EasyGO2325
2326,Victoria / Indiana,43.460332,-80.4766,EasyGO2326
2328,Edna / Frederick,43.458682,-80.473337,EasyGO2328
2329,River / Frederick,43.46239,-80.461832,EasyGO2329
2330,River / Victoria,43.464092,-80.464303,EasyGO2330
2331,Victoria / Turner,43.46496,-80.461597,EasyGO2331
2332,Victoria / Frederick,43.46545,-80.459997,EasyGO2332
2333,Victoria / Frederick,43.466243,-80.457423,EasyGO2333
2334,1151 Victoria St.,43.466718,-80.45592,EasyGO2334
2335,Victoria / Forfar,43.46738,-80.453823,EasyGO2335
2336,Victoria / Natchez,43.468417,-80.450663,EasyGO2336
2337,1373 Victoria St.,43.469538,-80.447385,EasyGO2337
2338,Victoria / Smetana,43.47066,-80.44408,EasyGO2338
2339,Lackner / Victoria,43.470947,-80.440882,EasyGO2339
2340,Path To Georgian,43.46836,-80.438798,EasyGO2340
2341,Keewatin / Georgian,43.46463,-80.438603,EasyGO2341
2342,Keewatin / Heritage,43.463555,-80.44176,EasyGO2342
2343,Heritage / Halifax,43.464417,-80.443118,EasyGO2343
2344,Natchez / Halifax,43.464508,-80.445297,EasyGO2344
2345,Natchez / Matthew,43.46573,-80.44636,EasyGO2345
2346,Natchez / Rothsay,43.467952,-80.44831,EasyGO2346
2347,Victoria / Natchez,43.468482,-80.451117,EasyGO2347
2348,Victoria / Forfar,43.467363,-80.45448,EasyGO2348
2349,Frederick / Avon,43.464725,-80.458792,EasyGO2349
2350,Frederick / Turner,43.463698,-80.459627,EasyGO2350
2351,Edna / Hwy 7 Ramp,43.46009,-80.474638,EasyGO2351
2352,Victoria / Indiana,43.460592,-80.476582,EasyGO2352
2353,Victoria / Locust,43.459712,-80.479342,EasyGO2353
2354,Victoria / Chestnut,43.45914,-80.480998,EasyGO2354
2355,Queen / Lancaster,43.45774,-80.482782,EasyGO2355
2356,Queen / St. Leger,43.456588,-80.483803,EasyGO2356
2357,Queen / Margaret,43.454551,-80.485262,EasyGO2357
2358,Queen / Ahrens,43.453387,-80.486337,EasyGO2358
2359,Weber / Scott,43.450443,-80.484336,EasyGO2359
2360,Krug / Rose,43.450328,-80.478952,EasyGO2360
2361,Krug / Samuel,43.450968,-80.47711,EasyGO2361
2362,Krug / Lydia,43.451868,-80.474492,EasyGO2362
2363,Krug / East,43.452652,-80.472286,EasyGO2363
2364,Krug / Melrose,43.453255,-80.470418,EasyGO2364
2365,Krug / Dumfries,43.453898,-80.468453,EasyGO2365
2366,Krug / Becker,43.45438199,-80.46747834,EasyGO2366
2367,Becker / Belleview,43.452555,-80.46481,EasyGO2367
2368,Smithson / Belleview,43.453692,-80.46219,EasyGO2368
2369,Krug / Cambridge,43.455598,-80.463872,EasyGO2369
2370,Krug / Eton,43.456022,-80.462377,EasyGO2370
2371,Krug / Sherwood,43.457235,-80.461087,EasyGO2371
2372,Krug / River,43.458326,-80.457814,EasyGO2372
2373,Lorraine / Birkshire,43.457825,-80.448255,EasyGO2373
2374,Carson / Lorraine,43.45877,-80.447307,EasyGO2374
2375,Carson / Confederation,43.460125,-80.448832,EasyGO2375
2376,Confederation / Amber,43.461218,-80.446023,EasyGO2376
2377,Lorraine / Lackner,43.461745,-80.437253,EasyGO2377
2378,Lackner / Banbury,43.45926,-80.435245,EasyGO2378
2379,Old Chicopee / Holborn,43.451223,-80.439905,EasyGO2379
2380,65 Holborn Dr.,43.45004,-80.440307,EasyGO2380
2381,Holborn / Holborn Ct.,43.449298,-80.442323,EasyGO2381
2382,Holborn / Holborn Ct.,43.449358,-80.441768,EasyGO2382
2383,Holborn / Old Chicopee,43.450328,-80.439693,EasyGO2383
2384,Old Chicopee / Ottawa,43.452063,-80.440472,EasyGO2384
2385,Lackner / Ottawa,43.457507,-80.432275,EasyGO2385
2386,Lackner / Banbury,43.45913,-80.434871,EasyGO2386
2387,Lorraine / Wimbleton,43.461667,-80.438328,EasyGO2387
2388,Lorraine / Heritage,43.460862,-80.439878,EasyGO2388
2389,Confederation / Lorraine,43.460342,-80.442357,EasyGO2389
2390,Confederation / Tupper,43.461357,-80.442993,EasyGO2390
2391,Confederation / Amber,43.461305,-80.446173,EasyGO2391
2392,Confederation / Carson,43.460348,-80.44897,EasyGO2392
2393,Carson / Lorraine,43.45852,-80.447233,EasyGO2393
2394,Lorraine / Birkshire,43.457767,-80.448838,EasyGO2394
2395,Krug / River,43.45833,-80.458298,EasyGO2395
2396,Krug / Sherwood,43.457502,-80.460928,EasyGO2396
2397,Cambridge / Sherwood,43.455287,-80.462488,EasyGO2397
2398,Smithson / Belleview,43.453465,-80.462152,EasyGO2398
2399,Belleview / Becker,43.45255,-80.464432,EasyGO2399
2400,Krug / Becker,43.454303,-80.46771,EasyGO2400
2401,Krug / Dumfries,43.45385,-80.469013,EasyGO2401
2402,Krug / Melrose,43.453475,-80.470223,EasyGO2402
2403,Krug / East,43.452695,-80.472553,EasyGO2403
2404,Krug / Lydia,43.451932,-80.474747,EasyGO2404
2405,Krug / Samuel,43.451047,-80.477302,EasyGO2405
2406,Krug / Rose,43.450422,-80.479057,EasyGO2406
2407,Krug / Lancaster,43.449822,-80.48077,EasyGO2407
2408,Weber / Scott,43.450598,-80.48426,EasyGO2408
2409,Wellington / Moore,43.454898,-80.501357,EasyGO2409
2410,Wellington / Waterloo,43.455588,-80.499322,EasyGO2410
2411,Wellington / Duke,43.456232,-80.497412,EasyGO2411
2412,Wellington / Weber,43.45693,-80.495315,EasyGO2412
2413,Wellington / Ahrens,43.457585,-80.493278,EasyGO2413
2414,Wellington / Margaret,43.458712,-80.489938,EasyGO2414
2415,Wellington / St. Leger,43.459662,-80.487077,EasyGO2415
2416,Wellington / Major,43.46065,-80.484048,EasyGO2416
2417,Lancaster / Louisa,43.461987,-80.483587,EasyGO2417
2418,Lancaster / Hill,43.464377,-80.484092,EasyGO2418
2419,Lancaster / Guelph,43.465495,-80.484077,EasyGO2419
2420,Lancaster / Arnold,43.467846,-80.484189,EasyGO2420
2421,Lancaster / Ash,43.469186,-80.484229,EasyGO2421
2422,Lancaster / Union,43.47109,-80.484275,EasyGO2422
2423,Lancaster / Hamel,43.47526,-80.484337,EasyGO2423
2424,Lancaster / Bridge,43.481807,-80.48285,EasyGO2424
2425,Bridge / Tyson,43.481207,-80.480298,EasyGO2425
2426,Bridge / Bloomingdale,43.480457,-80.478282,EasyGO2426
2427,Bridge / Schweitzer,43.478953,-80.474195,EasyGO2427
2428,Bridge / Tagge,43.478127,-80.471872,EasyGO2428
2429,Stanley / Schueller,43.4777,-80.466575,EasyGO2429
2430,Stanley / Tagge,43.479298,-80.46795,EasyGO2430
2431,Stanley / Schweitzer,43.480963,-80.46903,EasyGO2431
2432,Schweitzer / Nelson,43.481575,-80.467317,EasyGO2432
2433,Schweitzer / Daniel,43.482733,-80.463877,EasyGO2433
2434,Daniel / Bloomingdale,43.485293,-80.465382,EasyGO2434
2435,Bloomingdale / Nelson,43.484165,-80.468855,EasyGO2435
2436,Bloomingdale / Stanley,43.483318,-80.47112,EasyGO2436
2437,Bloomingdale / Prince,43.481855,-80.475285,EasyGO2437
2438,Bloomingdale / Horning,43.481107,-80.477495,EasyGO2438
2439,Bridge / Tyson,43.481115,-80.47975,EasyGO2439
2440,Lancaster / Hamel,43.47506,-80.48445,EasyGO2440
2441,Lancaster / Union,43.471371,-80.484452,EasyGO2441
2442,Lancaster / Ash,43.469296,-80.484374,EasyGO2442
2443,Lancaster / Arnold,43.468057,-80.484342,EasyGO2443
2444,Lancaster / Guelph,43.465378,-80.4843,EasyGO2444
2445,Lancaster / Hill,43.46412,-80.484247,EasyGO2445
2446,Lancaster / Louisa,43.462147,-80.483798,EasyGO2446
2447,Wellington / Major,43.460708,-80.484153,EasyGO2447
2448,Wellington / St. Leger,43.45983,-80.486818,EasyGO2448
2449,Wellington / Margaret,43.458697,-80.490313,EasyGO2449
2450,Wellington / Ahrens,43.4578,-80.49296,EasyGO2450
2451,Wellington / Duke,43.456577,-80.496683,EasyGO2451
2452,Wellington / Waterloo,43.455805,-80.498992,EasyGO2452
2453,Wellington / Moore,43.455098,-80.501085,EasyGO2453
2454,Wellington / King,43.454508,-80.502919,EasyGO2454
2455,King / Breithaupt,43.453817,-80.50143,EasyGO2455
2456,King / Victoria,43.452887,-80.498582,EasyGO2456
2457,King / Water,43.451736,-80.494754,EasyGO2457
2458,King / Gaukel,43.45116,-80.4929,EasyGO2458
2459,Weber / Young,43.453283,-80.490448,EasyGO2459
2461,Weber / Water,43.454273,-80.492655,EasyGO2461
2462,Weber / Wellington,43.456973,-80.495038,EasyGO2462
2463,Weber / Wilhelm,43.45925,-80.49728,EasyGO2463
2464,Weber / Blucher,43.46078,-80.498957,EasyGO2464
2465,Weber / Raitar,43.462147,-80.500438,EasyGO2465
2466,Weber / Roger,43.464402,-80.503705,EasyGO2466
2467,Union / Weber,43.465523,-80.504615,EasyGO2467
2468,Union / Ellis,43.466065,-80.503015,EasyGO2468
2469,Union / Margaret,43.46709,-80.50016,EasyGO2469
2471,Margaret / Fairfield,43.465069,-80.49643,EasyGO2471
2472,Margaret / Guelph,43.463365,-80.494562,EasyGO2472
2473,Guelph / Floyd,43.464007,-80.491395,EasyGO2473
2474,St. Leger / Guelph,43.464875,-80.490067,EasyGO2474
2475,St. Leger / Fairfield,43.466132,-80.490825,EasyGO2475
2476,St. Leger / Prueter,43.467737,-80.491803,EasyGO2476
2477,St. Leger / Union,43.469392,-80.492827,EasyGO2477
2478,Union / Boehmer,43.47097,-80.489232,EasyGO2478
2479,Union / Oxford,43.471213,-80.48711,EasyGO2479
2480,Union / Bond,43.47121,-80.485807,EasyGO2480
2481,Union / Lancaster,43.471185,-80.484648,EasyGO2481
2482,Maple / Union,43.471428,-80.482117,EasyGO2482
2483,Maple / Arnold,43.468818,-80.480727,EasyGO2483
2484,Maple / Guelph,43.467003,-80.479532,EasyGO2484
2485,Guelph / Clifton,43.466147,-80.481961,EasyGO2485
2486,Guelph / Englewood,43.465638,-80.484862,EasyGO2486
2487,Guelph / Edwin,43.465298,-80.488253,EasyGO2487
2488,Guelph / St. Leger,43.464435,-80.490572,EasyGO2488
2489,Guelph / Crestwood,43.463883,-80.492127,EasyGO2489
2490,Guelph / Margaret,43.463272,-80.49389,EasyGO2490
2491,Margaret / Breithaupt Ctr.,43.46529,-80.496546,EasyGO2491
2492,Union / Margaret,43.467222,-80.5003,EasyGO2492
2493,Union / Ellis,43.466333,-80.502757,EasyGO2493
2494,Weber / Roger,43.464325,-80.50387,EasyGO2494
2495,Weber / Raitar,43.462547,-80.501085,EasyGO2495
2496,Weber / Guelph,43.461469,-80.49991,EasyGO2496
2497,Weber / Blucher,43.460339,-80.498636,EasyGO2497
2498,Weber / Wilhelm,43.458595,-80.496587,EasyGO2498
2499,Weber / Wellington,43.457212,-80.495293,EasyGO2499
2500,Weber / Victoria,43.454867,-80.493902,EasyGO2500
2501,Weber / Water,43.453955,-80.492452,EasyGO2501
2502,Weber / Ontario,43.45261473,-80.48935093,EasyGO2502
2503,Weber / Queen,43.451932,-80.48761,EasyGO2503
2504,Path To Bauer,43.496628,-80.529428,EasyGO2504
2505,King / Manulife,43.491693,-80.528482,EasyGO2505
2506,King / Waterloo Inn,43.490015,-80.528003,EasyGO2506
2507,King / Blue Springs,43.487533,-80.527452,EasyGO2507
2508,King / Weber,43.48395512,-80.5267301,EasyGO2508
2509,King / Columbia,43.482332,-80.526352,EasyGO2509
2510,Columbia / Spruce,43.481632,-80.527198,EasyGO2510
2511,Columbia / Holly,43.480703,-80.529687,EasyGO2511
2512,Columbia / Hazel,43.479797,-80.532193,EasyGO2512
2513,Columbia / Albert,43.478785,-80.535027,EasyGO2513
2514,Columbia / Lester,43.477972,-80.537435,EasyGO2514
2515,U.W. - South Campus Hall,43.4686,-80.540275,EasyGO2515
2516,U.W. - Environment 2,43.467795,-80.543577,EasyGO2516
2517,U.W. - Biology 2,43.46971,-80.54408,EasyGO2517
2518,U.W. - University Club,43.472737,-80.547978,EasyGO2518
2519,U.W. - B.C. Matthews Hall,43.473932,-80.546227,EasyGO2519
2520,Columbia / U.W. Optometry,43.475432,-80.54412,EasyGO2520
2521,Columbia / Phillip,43.476808,-80.540192,EasyGO2521
2522,Columbia / Lester,43.477857,-80.537262,EasyGO2522
2523,Columbia / Albert,43.478547,-80.535328,EasyGO2523
2524,Columbia / Hazel,43.480035,-80.531125,EasyGO2524
2525,Columbia / Holly,43.480792,-80.52907,EasyGO2525
2526,Columbia / King,43.48170922,-80.52637573,EasyGO2526
2527,Regina / Columbia,43.480923,-80.524758,EasyGO2527
2528,Regina / Hickory,43.478708,-80.524295,EasyGO2528
2529,Hickory / King,43.478192,-80.525173,EasyGO2529
2532,King / Hickory,43.47835,-80.525515,EasyGO2532
2533,King / University,43.475428,-80.524983,EasyGO2533
2535,King / Central,43.469807,-80.523732,EasyGO2535
2536,King / Allen,43.460296,-80.519303,EasyGO2536
2538,King / Union,43.458271,-80.515238,EasyGO2538
2540,Grand River Hospital,43.456932,-80.511155,EasyGO2540
2542,King / Central Fresh Market,43.455825,-80.507668,EasyGO2542
2543,King / Agnes,43.455042,-80.505262,EasyGO2543
2544,King / Wellington,43.454393,-80.503203,EasyGO2544
2545,Charles St. Terminal,43.449496,-80.492761,EasyGO2545
2546,Charles St. Terminal,43.449412,-80.492551,EasyGO2546
2547,Charles St. Terminal,43.449148,-80.491925,EasyGO2547
2548,Charles St. Terminal,43.449035,-80.491684,EasyGO2548
2549,Charles St. Terminal,43.449074,-80.491859,EasyGO2549
2550,Charles St. Terminal,43.449168,-80.492105,EasyGO2550
2551,Charles St. Terminal,43.449258,-80.492318,EasyGO2551
2552,Charles St. Terminal,43.449406,-80.492675,EasyGO2552
2553,Charles St. Terminal,43.449542,-80.492968,EasyGO2553
2554,Charles St. Terminal,43.449249,-80.492182,EasyGO2554
2555,Charles St. Terminal,43.449007,-80.492207,EasyGO2555
2556,Charles St. Terminal,43.449088,-80.492453,EasyGO2556
2557,Charles St. Terminal,43.449386,-80.493123,EasyGO2557
2558,Charles St. Terminal,43.449238,-80.492669,EasyGO2558
2559,Charles St. Terminal,43.44908,-80.492309,EasyGO2559
2560,Charles St. Terminal,43.44898,-80.492063,EasyGO2560
2561,King / Benton,43.44922,-80.487815,EasyGO2561
2562,King / Queen,43.449871,-80.489391,EasyGO2562
2564,King / Cedar,43.447428,-80.483587,EasyGO2564
2565,King / Cameron,43.446092,-80.480918,EasyGO2565
2567,King / Stirling,43.444307,-80.477213,EasyGO2567
2568,King / Borden,43.442843,-80.47391,EasyGO2568
2569,King / Ottawa,43.441945,-80.471873,EasyGO2569
2570,King / Sydney,43.440959,-80.469511,EasyGO2570
2571,King / Rockway Ctr.,43.439763,-80.466372,EasyGO2571
2572,King / Rockway Gardens,43.437975,-80.462012,EasyGO2572
2573,First / Eckert,43.434548,-80.456578,EasyGO2573
2575,Fourth / Kingsway,43.434252,-80.452805,EasyGO2575
2576,Fourth / Connaught,43.431368,-80.454597,EasyGO2576
2577,Connaught / Sixth,43.430572,-80.452806,EasyGO2577
2578,Connaught / Franklin,43.429878,-80.450621,EasyGO2578
2580,Connaught / Woodhaven,43.428527,-80.44637,EasyGO2580
2581,Traynor / Connaught,43.427825,-80.444893,EasyGO2581
2582,Greenfield / Traynor,43.425585,-80.445473,EasyGO2582
2583,Greenfield / Kingsway,43.424524,-80.441429,EasyGO2583
2584,Greenfield / Kingsway,43.424723,-80.441527,EasyGO2584
2585,Greenfield / Traynor,43.425622,-80.445195,EasyGO2585
2586,Traynor / Connaught,43.427895,-80.444783,EasyGO2586
2587,Connaught / Woodhaven,43.42873,-80.446709,EasyGO2587
2589,Connaught / Franklin,43.430047,-80.45084,EasyGO2589
2590,Connaught / Fifth,43.431055,-80.454008,EasyGO2590
2591,Fourth / Wilson,43.42916,-80.455892,EasyGO2591
2592,Wilson / Franklin,43.426873,-80.453045,EasyGO2592
2593,Wilson / Fairlawn,43.424467,-80.448563,EasyGO2593
2594,Wilson / Traynor,43.423543,-80.446804,EasyGO2594
2595,Wilson / Balfour,43.42274,-80.445072,EasyGO2595
2596,Traynor / Wilson,43.423913,-80.447103,EasyGO2596
2597,Wilson / Woodhaven,43.425007,-80.449325,EasyGO2597
2599,Wilson / Franklin,43.426813,-80.452782,EasyGO2599
2600,Wilson / Fifth,43.427998,-80.454997,EasyGO2600
2601,Fourth / Wilson,43.429755,-80.455385,EasyGO2601
2602,Fourth / Connaught,43.431045,-80.45468,EasyGO2602
2603,Fourth / Kingsway,43.434425,-80.45261,EasyGO2603
2605,First / Eckert,43.434355,-80.456888,EasyGO2605
2606,Eckert / Dixon,43.43463,-80.459198,EasyGO2606
2609,Montgomery / Weber,43.438057,-80.458337,EasyGO2609
2610,Weber / Wilfred,43.436393,-80.453613,EasyGO2610
2611,Weber / Dellroy,43.43558,-80.45114,EasyGO2611
2612,Weber / Franklin,43.434313,-80.447392,EasyGO2612
2613,Weber / Arlington,43.433353,-80.444067,EasyGO2613
2614,Weber / Fergus,43.433322,-80.441387,EasyGO2614
2615,Kinzie / Weber,43.432085,-80.438048,EasyGO2615
2616,Kinzie / Walker,43.432992,-80.436478,EasyGO2616
2617,Kinzie / Guerin,43.433875,-80.43499,EasyGO2617
2618,Kinzie / Thaler,43.435455,-80.432897,EasyGO2618
2619,Thaler / Kinzie,43.434085,-80.431283,EasyGO2619
2620,Thaler / Fairway,43.432785,-80.429758,EasyGO2620
2621,King / Morgan,43.428915,-80.433215,EasyGO2621
2622,King / Kingsbury,43.429513,-80.435175,EasyGO2622
2623,Weber / Hwy 8 Ramp,43.430618,-80.43721,EasyGO2623
2624,Franklin / Prospect,43.436072,-80.446872,EasyGO2624
2625,Franklin / Shuh,43.437875,-80.445795,EasyGO2625
2626,Franklin / Trafalgar,43.440142,-80.446385,EasyGO2626
2627,Franklin / Kenneth,43.441233,-80.446843,EasyGO2627
2628,Franklin / Dalewood,43.443235,-80.447703,EasyGO2628
2629,Franklin / Bradley,43.444665,-80.448343,EasyGO2629
2630,Franklin / Dreger,43.446487,-80.44947,EasyGO2630
2631,Franklin / Ottawa,43.447863,-80.450372,EasyGO2631
2632,Ottawa / Dreger,43.448212,-80.45296,EasyGO2632
2633,Ottawa / Nottingham,43.447692,-80.458715,EasyGO2633
2634,Ottawa / Mckenzie,43.44495,-80.465235,EasyGO2634
2635,Ottawa / Weber,43.444333,-80.467003,EasyGO2635
2636,Weber / Borden,43.445605,-80.470695,EasyGO2636
2637,The Aud,43.446452,-80.469085,EasyGO2637
2638,East / Stirling,43.449063,-80.470335,EasyGO2638
2639,East / Cameron,43.451068,-80.471668,EasyGO2639
2640,East / Krug,43.452503,-80.472598,EasyGO2640
2641,East / Chapel,43.454412,-80.473902,EasyGO2641
2642,East / Frederick,43.456388,-80.47556,EasyGO2642
2643,East / Chapel,43.45451,-80.474103,EasyGO2643
2644,East / Krug,43.452722,-80.472907,EasyGO2644
2645,East / Cameron,43.450497,-80.471438,EasyGO2645
2646,East / Stirling,43.44844,-80.470073,EasyGO2646
2647,The Aud,43.446523,-80.46911,EasyGO2647
2648,Borden / Weber,43.446008,-80.470857,EasyGO2648
2649,Weber / Fairview Ave.,43.446827,-80.475898,EasyGO2649
2650,Weber / Pandora,43.447265,-80.476875,EasyGO2650
2651,Weber / Cameron,43.447953,-80.478425,EasyGO2651
2652,Weber / Madison,43.448662,-80.480002,EasyGO2652
2653,Weber / Cedar,43.449288,-80.481395,EasyGO2653
2654,Margaret / Queen,43.454688,-80.485735,EasyGO2654
2655,Margaret / Maynard,43.455593,-80.487895,EasyGO2655
2656,Margaret / Victoria,43.456927,-80.489307,EasyGO2656
2657,Margaret / Wellington,43.458997,-80.490588,EasyGO2657
2658,Margaret / Wilhelm,43.46075,-80.492575,EasyGO2658
2659,Margaret / Guelph,43.462873,-80.493773,EasyGO2659
2660,Union / Weber,43.46546,-80.505215,EasyGO2660
2661,Weber / Bristol,43.466432,-80.507112,EasyGO2661
2662,Weber / Cornwall,43.467197,-80.508385,EasyGO2662
2663,Weber / Allen,43.467887,-80.509535,EasyGO2663
2664,Weber / Royal,43.469188,-80.511445,EasyGO2664
2665,Weber / Lincoln,43.471102,-80.5135,EasyGO2665
2666,Weber / Mackay,43.472255,-80.514852,EasyGO2666
2667,Weber / Marshall,43.474983,-80.517103,EasyGO2667
2668,Weber / Noecker,43.473488,-80.515907,EasyGO2668
2669,Weber / Lodge,43.476015,-80.517943,EasyGO2669
2670,University / Weber,43.477828,-80.520718,EasyGO2670
2671,University / Regina,43.476848,-80.523272,EasyGO2671
2673,University / Hemlock,43.474283,-80.530577,EasyGO2673
2674,University / Sunview,43.473265,-80.533148,EasyGO2674
2675,University / Phillip,43.47236,-80.535725,EasyGO2675
2676,University / Seagram,43.468427,-80.539408,EasyGO2676
2677,University / Ring Road Exit,43.466187,-80.540567,EasyGO2677
2678,Westmount / University,43.463863,-80.540618,EasyGO2678
2679,Westmount / Westcourt,43.462177,-80.539027,EasyGO2679
2680,Westmount / Erb,43.459042,-80.536837,EasyGO2680
2681,Westmount / Lourdes,43.457612,-80.53533,EasyGO2681
2682,Westmount / Dietz,43.456923,-80.53224,EasyGO2682
2683,Westmount / William,43.45566529,-80.52906819,EasyGO2683
2685,Westmount / John,43.454347,-80.52766,EasyGO2685
2686,Union / Westmount,43.452182,-80.524937,EasyGO2686
2687,Union / Dunbar,43.453229,-80.522523,EasyGO2687
2688,Union / Earl,43.454479,-80.520774,EasyGO2688
2689,Belmont / Union,43.454901,-80.519047,EasyGO2689
2692,545 Belmont Ave.,43.450743,-80.51638,EasyGO2692
2693,551 Belmont Ave.,43.449407,-80.515485,EasyGO2693
2694,Belmont / Gage,43.447603,-80.514288,EasyGO2694
2695,Belmont / Karn,43.445037,-80.512965,EasyGO2695
2696,Belmont / Victoria,43.443235,-80.512007,EasyGO2696
2697,Belmont / Edgewood,43.442205,-80.51075,EasyGO2697
2698,Belmont / Metzloff,43.441147,-80.509502,EasyGO2698
2699,Belmont / Burn,43.440148,-80.508363,EasyGO2699
2700,Highland / North,43.440082,-80.506768,EasyGO2700
2701,Highland / Patricia,43.440507,-80.50552,EasyGO2701
2702,Highland / West,43.441168,-80.502095,EasyGO2702
2703,Highland / Garden,43.441125,-80.499503,EasyGO2703
2704,Queen / Homewood,43.442617,-80.496425,EasyGO2704
2705,Queen / Schneider,43.444567,-80.49445,EasyGO2705
2706,Queen / Courtland,43.445643,-80.49334,EasyGO2706
2707,Queen / Courtland,43.44667,-80.4922,EasyGO2707
2708,Charles St. Terminal,43.448912,-80.491987,EasyGO2708
2709,Charles St. Terminal,43.449247,-80.492813,EasyGO2709
2710,Charles St. Terminal,43.44934,-80.492913,EasyGO2710
2711,Charles St. Terminal,43.448865,-80.491814,EasyGO2711
2712,Charles / Benton,43.448483,-80.488785,EasyGO2712
2713,Benton / Church,43.44747,-80.4894,EasyGO2713
2714,Benton / Courtland,43.445963,-80.491028,EasyGO2714
2715,Courtland / Peter,43.44411,-80.489403,EasyGO2715
2716,Courtland / Madison,43.442307,-80.486292,EasyGO2716
2718,Courtland / Palmer,43.439872,-80.482138,EasyGO2718
2719,Courtland / Kent,43.438807,-80.480262,EasyGO2719
2720,Courtland / Borden,43.43806,-80.479028,EasyGO2720
2721,Courtland / Ottawa,43.436942,-80.477137,EasyGO2721
2722,Courtland / Sydney,43.435822,-80.475275,EasyGO2722
2723,Westwood / Inwood,43.445524,-80.526745,EasyGO2723
2724,Courtland / Carwood,43.433082,-80.472407,EasyGO2724
2725,Courtland / Overland,43.428842,-80.468278,EasyGO2725
2726,Walton / Kipling,43.427743,-80.465945,EasyGO2726
2727,Walton / Vanier,43.42836,-80.464242,EasyGO2727
2728,Vanier / Erie,43.427303,-80.462805,EasyGO2728
2729,Vanier / Kipling,43.424928,-80.460222,EasyGO2729
2730,Vanier / Shelley,43.423793,-80.458998,EasyGO2730
2731,Vanier / Siebert,43.4217,-80.456727,EasyGO2731
2732,Traynor / Vanier,43.420568,-80.454853,EasyGO2732
2733,Traynor / Belwood,43.421303,-80.451867,EasyGO2733
2734,Traynor / Balfour,43.422137,-80.449348,EasyGO2734
2735,Traynor / Wilson,43.423595,-80.447118,EasyGO2735
2736,Traynor / Balfour,43.422207,-80.449305,EasyGO2736
2737,Traynor / Belwood,43.421325,-80.452087,EasyGO2737
2738,Traynor / Vanier,43.420688,-80.45485,EasyGO2738
2739,Vanier / Siebert,43.421843,-80.45676,EasyGO2739
2740,Vanier / Vanier Pk.,43.423453,-80.458512,EasyGO2740
2741,Vanier / Shelley,43.424838,-80.459972,EasyGO2741
2742,Vanier / Erie,43.427403,-80.462762,EasyGO2742
2743,Walton / Vanier,43.428358,-80.464518,EasyGO2743
2744,Walton / Kipling,43.42783,-80.466003,EasyGO2744
2745,Courtland / Carwood,43.432857,-80.471753,EasyGO2745
2746,Courtland / Sydney,43.435762,-80.475038,EasyGO2746
2747,Courtland / Ottawa,43.437218,-80.477357,EasyGO2747
2748,Courtland / Borden,43.43833552,-80.47927682,EasyGO2748
2749,Courtland / Palmer,43.440023,-80.482263,EasyGO2749
2750,Courtland / Stirling,43.441398,-80.484513,EasyGO2750
2751,Courtland / Madison,43.442625,-80.486487,EasyGO2751
2752,Courtland / Peter,43.44412,-80.489182,EasyGO2752
2753,Courtland / Benton,43.44524,-80.491145,EasyGO2753
2754,Queen / Courtland,43.445883,-80.493352,EasyGO2754
2755,Queen / Homewood,43.442465,-80.496753,EasyGO2755
2756,Highland / Queen,43.441147,-80.498968,EasyGO2756
2757,Highland / West,43.441318,-80.502043,EasyGO2757
2758,Highland / Patricia,43.440708,-80.505272,EasyGO2758
2759,Belmont / Highland,43.440023,-80.507973,EasyGO2759
2760,Belmont / Metzloff,43.441035,-80.509133,EasyGO2760
2761,Belmont / Jack,43.442303,-80.51066,EasyGO2761
2762,Belmont / Victoria,43.44357,-80.512032,EasyGO2762
2763,Belmont / Karn,43.445182,-80.512882,EasyGO2763
2764,Belmont / Gage,43.447733,-80.514148,EasyGO2764
2765,564 Belmont Ave.,43.45016,-80.515742,EasyGO2765
2766,Belmont / Glasgow,43.451808,-80.51683,EasyGO2766
2767,Belmont / Claremont,43.453589,-80.517951,EasyGO2767
2768,Union / Severn,43.455053,-80.519694,EasyGO2768
2769,Union / Dunbar,43.453741,-80.522501,EasyGO2769
2772,Westmount / John,43.454447,-80.527605,EasyGO2772
2773,Westmount / William,43.455893,-80.529068,EasyGO2773
2774,Westmount / Alexandra,43.45684,-80.530902,EasyGO2774
2775,Westmount / Lourdes,43.457417,-80.534658,EasyGO2775
2776,Westmount / Erb,43.459078,-80.536658,EasyGO2776
2777,Westmount Place,43.46117,-80.538322,EasyGO2777
2778,Father David Bauer,43.462455,-80.538915,EasyGO2778
2779,Westmount / University,43.464042,-80.540582,EasyGO2779
2780,University / Ring Road Exit,43.466133,-80.540283,EasyGO2780
2781,University / Seagram,43.468935,-80.538833,EasyGO2781
2783,University / Hemlock,43.474127,-80.53031,EasyGO2783
2785,University / King,43.475827,-80.52545,EasyGO2785
2786,University / Regina,43.47667,-80.523278,EasyGO2786
2787,University / Weber,43.477647,-80.520518,EasyGO2787
2788,University / Marsland,43.479302,-80.516198,EasyGO2788
2789,Carter / Winfield,43.479748,-80.514133,EasyGO2789
2790,Carter / Marshall,43.476333,-80.513758,EasyGO2790
2791,Marshall / Lincoln,43.476242,-80.50951,EasyGO2791
2792,Lincoln / Margaret,43.47818,-80.50836,EasyGO2792
2793,Lincoln / Mayfield,43.479192,-80.507755,EasyGO2793
2794,Lincoln / Bluevale,43.482015,-80.505813,EasyGO2794
2795,Lincoln / University,43.48333,-80.50761,EasyGO2795
2800,Lee / Dunvegan,43.49352,-80.504429,EasyGO2800
2801,Lee / Dansbury,43.494485,-80.504678,EasyGO2801
2803,Lexington / Dunvegan,43.494565,-80.510352,EasyGO2803
2804,Lexington / Davenport,43.49308948,-80.51261028,EasyGO2804
2805,Davenport / Foxhunt,43.494327,-80.51354,EasyGO2805
2806,Path To Anndale,43.496873,-80.515888,EasyGO2806
2807,Davenport / Kidsability,43.497722,-80.518018,EasyGO2807
2808,Davenport / Kingscourt,43.497123,-80.521133,EasyGO2808
2809,Kraus / Conestogo,43.500218,-80.529488,EasyGO2809
2810,Kraus / Northfield,43.501775,-80.530632,EasyGO2810
2811,Davenport / Conestoga Mall,43.499148,-80.525123,EasyGO2811
2812,Davenport / Kingscourt,43.497342,-80.523255,EasyGO2812
2813,Davenport / Kingscourt,43.497052,-80.520597,EasyGO2813
2814,Davenport / Kidsability,43.497485,-80.518472,EasyGO2814
2815,Path To Redfox,43.496507,-80.515765,EasyGO2815
2817,Lexington / Davenport,43.493005,-80.512387,EasyGO2817
2818,Lexington / Dunvegan,43.494813,-80.509825,EasyGO2818
2819,Lexington / Lee,43.496583,-80.507183,EasyGO2819
2821,Lee / Dunvegan,43.493248,-80.504447,EasyGO2821
2826,Lincoln / Bluevale,43.48259,-80.506755,EasyGO2826
2827,Lincoln / Mayfield,43.47975,-80.507518,EasyGO2827
2828,Lincoln / Margaret,43.478745,-80.508278,EasyGO2828
2829,Marshall / Lincoln,43.476343,-80.5098,EasyGO2829
2830,Marshall / Carter,43.47635,-80.513533,EasyGO2830
2831,Carter / University,43.480147,-80.5141,EasyGO2831
2832,University / Marsland,43.479217,-80.51686,EasyGO2832
2833,Weber / Marshall,43.475038,-80.517443,EasyGO2833
2834,Weber / Noecker,43.473523,-80.516183,EasyGO2834
2835,Weber / Lincoln,43.471145,-80.51389,EasyGO2835
2836,Weber / Allen,43.46768,-80.50957,EasyGO2836
2837,Weber / Rodney,43.465895,-80.506565,EasyGO2837
2838,Margaret / Wilhelm,43.46072,-80.492793,EasyGO2838
2839,Margaret / Wellington,43.458655,-80.490548,EasyGO2839
2840,Margaret / Victoria,43.455962,-80.488827,EasyGO2840
2841,Margaret / Queen,43.454545,-80.48566,EasyGO2841
2842,Weber / Frederick,43.451397,-80.48633,EasyGO2842
2843,Weber / Cedar,43.44908,-80.481287,EasyGO2843
2844,Weber / Madison,43.448518,-80.480057,EasyGO2844
2845,Weber / Fairview,43.446963,-80.476525,EasyGO2845
2846,Weber / Stirling,43.446412,-80.475312,EasyGO2846
2847,Weber / Borden,43.445533,-80.470935,EasyGO2847
2848,Weber / Onward,43.445132,-80.469868,EasyGO2848
2849,Ottawa / Mckenzie,43.444737,-80.465332,EasyGO2849
2850,Ottawa / Hwy 7 Ramp,43.445442,-80.463412,EasyGO2850
2851,Ottawa / Nottingham,43.447702,-80.458223,EasyGO2851
2852,Ottawa / Dreger,43.448128,-80.453353,EasyGO2852
2853,Franklin / Ottawa,43.448213,-80.450697,EasyGO2853
2854,Franklin / Penrose,43.44634,-80.44953,EasyGO2854
2855,Franklin / Bradley,43.444595,-80.448475,EasyGO2855
2856,Franklin / Dalewood,43.443362,-80.447945,EasyGO2856
2857,Franklin / Kenneth,43.441762,-80.447238,EasyGO2857
2858,Franklin / Trafalgar,43.439752,-80.446367,EasyGO2858
2859,Franklin / Shuh,43.437872,-80.445957,EasyGO2859
2860,Franklin / Prospect,43.435892,-80.447073,EasyGO2860
2861,Weber / Kinzie,43.431922,-80.438915,EasyGO2861
2862,King / Kingsbury,43.429262,-80.43487,EasyGO2862
2863,G.R.T. Strasburg Garage,43.425355,-80.490287,EasyGO2863
2864,Chandler / Bonfield,43.424732,-80.495277,EasyGO2864
2865,Elmsdale / Chandler,43.423855,-80.496687,EasyGO2865
2866,Elmsdale / Ottawa,43.42201,-80.49421,EasyGO2866
2867,Ottawa / Howland,43.42122,-80.497252,EasyGO2867
2868,Path To Chandler,43.420673,-80.500573,EasyGO2868
2869,Ottawa / Westmount,43.420357,-80.50258,EasyGO2869
2870,Ottawa / Howe,43.419653,-80.506583,EasyGO2870
2871,Williamsburg / Ottawa,43.418562,-80.507933,EasyGO2871
2872,Williamsburg / Pinedale,43.416247,-80.505322,EasyGO2872
2873,Williamsburg / Dinison,43.414648,-80.503563,EasyGO2873
2874,Williamsburg / Dinison,43.41327,-80.502035,EasyGO2874
2875,Dunsmere / Bosworth,43.41426,-80.499869,EasyGO2875
2876,Dunsmere / Radcliffe,43.414675,-80.498168,EasyGO2876
2877,Dunsmere / Colebrook,43.415867,-80.496163,EasyGO2877
2878,Dunsmere / Laurentian,43.416309,-80.493656,EasyGO2878
2879,Laurentian / Briar Knoll,43.414867,-80.492465,EasyGO2879
2880,Laurentian / Block Line,43.412783,-80.491957,EasyGO2880
2881,Block Line / Laurentian,43.4125,-80.4922,EasyGO2881
2882,Block Line / Mclennan Pk.,43.413442,-80.486295,EasyGO2882
2883,Block Line / Rittenhouse,43.413802,-80.483542,EasyGO2883
2884,Strasburg / Block Line,43.415538,-80.479552,EasyGO2884
2885,Block Line / Strasburg,43.41574,-80.480338,EasyGO2885
2886,Block Line / Rittenhouse,43.414148,-80.482905,EasyGO2886
2887,Block Line / Mclennan Pk.,43.413538,-80.48675,EasyGO2887
2888,Block Line / Laurentian,43.412768,-80.491483,EasyGO2888
2889,Laurentian / Briar Knoll,43.41515,-80.49245,EasyGO2889
2890,Dunsmere / Laurentian,43.416332,-80.493978,EasyGO2890
2891,Dunsmere / Colebrook,43.41592,-80.49635,EasyGO2891
2892,Dunsmere / Radcliffe,43.414923,-80.498018,EasyGO2892
2893,Dunsmere / Westmount,43.414297,-80.50025,EasyGO2893
2894,Williamsburg / Dinison,43.413218,-80.501492,EasyGO2894
2895,Williamsburg / Littlefield,43.414832,-80.503497,EasyGO2895
2896,Williamsburg / Pinedale,43.416538,-80.50538,EasyGO2896
2897,Williamsburg / Ottawa,43.418535,-80.507583,EasyGO2897
2898,Ottawa / Pinedale,43.419853,-80.504665,EasyGO2898
2899,Ottawa / Westmount,43.420222,-80.502148,EasyGO2899
2900,Path To Chandler,43.420593,-80.499935,EasyGO2900
2901,Ottawa / Howland,43.420978,-80.497572,EasyGO2901
2902,Elmsdale / Ottawa,43.422185,-80.49416,EasyGO2902
2903,Elmsdale / Chandler,43.42404,-80.49667,EasyGO2903
2904,Chandler / Bonfield,43.42465,-80.495198,EasyGO2904
2905,G.R.T. Strasburg Garage,43.425197,-80.490243,EasyGO2905
2906,Ottawa / Strasburg,43.422932,-80.486732,EasyGO2906
2907,Ottawa / Alpine,43.425168,-80.48374,EasyGO2907
2908,Ottawa / Imperial,43.429297,-80.481332,EasyGO2908
2909,479 Ottawa St.,43.430512,-80.480722,EasyGO2909
2910,Ottawa / Hoffman,43.431487,-80.479552,EasyGO2910
2911,Mill / Ottawa,43.434327,-80.47906,EasyGO2911
2912,Mill / Borden,43.43522,-80.483047,EasyGO2912
2913,Mill / Heiman,43.435838,-80.485643,EasyGO2913
2914,Mill / Stirling,43.437068,-80.486985,EasyGO2914
2915,Stirling / Courtland,43.440988,-80.48437,EasyGO2915
2916,Stirling / Charles,43.443348,-80.479087,EasyGO2916
2917,Stirling / Charles,43.443563,-80.478881,EasyGO2917
2919,Charles / Cameron,43.444802,-80.480365,EasyGO2919
2920,Charles / Cedar,43.44643,-80.48362,EasyGO2920
2921,Charles / Eby,43.447493,-80.485907,EasyGO2921
2922,Charles / Benton,43.448283,-80.48777,EasyGO2922
2923,Charles / Eby,43.447073,-80.485435,EasyGO2923
2924,Charles / Cedar,43.446288,-80.483787,EasyGO2924
2925,Charles / Pandora,43.44463,-80.480503,EasyGO2925
2927,Stirling / Kaufman Pk.,43.442815,-80.481082,EasyGO2927
2928,Stirling / Courtland,43.441528,-80.484093,EasyGO2928
2929,Stirling / Mill,43.438408,-80.486897,EasyGO2929
2930,Mill / Heiman,43.436105,-80.486085,EasyGO2930
2931,Mill / Borden,43.435068,-80.4829,EasyGO2931
2932,409 Mill St.,43.434608,-80.479942,EasyGO2932
2933,Mill / Ottawa,43.434172,-80.479018,EasyGO2933
2934,Ottawa / Hoffman,43.431968,-80.479525,EasyGO2934
2935,Ottawa / Kehl,43.429713,-80.481582,EasyGO2935
2936,Ottawa / Homer Watson,43.427103,-80.482227,EasyGO2936
2937,Ottawa / Alpine,43.425102,-80.484072,EasyGO2937
2938,Strasburg / Ottawa,43.422437,-80.487323,EasyGO2938
2939,Strasburg / Barwood,43.420895,-80.485627,EasyGO2939
2940,Strasburg / Selkirk,43.41872,-80.483175,EasyGO2940
2941,Strasburg / Blackhorne,43.416687,-80.480903,EasyGO2941
2942,Rittenhouse / Brookfield,43.412772,-80.482963,EasyGO2942
2943,Rittenhouse / Tuerr,43.410848,-80.482708,EasyGO2943
2944,Rittenhouse / Mccabe,43.409577,-80.484605,EasyGO2944
2945,Erinbrook / Goundry,43.408297,-80.485185,EasyGO2945
2946,Erinbrook / Pipers Green,43.406173,-80.487043,EasyGO2946
2947,Erinbrook / Hedgestone,43.405108,-80.489425,EasyGO2947
2948,Erinbrook / Tara,43.404427,-80.492742,EasyGO2948
2949,Erinbrook / Rockwood,43.40465,-80.495155,EasyGO2949
2950,Erinbrook / Ridgeway,43.406875,-80.496083,EasyGO2950
2951,Tillsley / Erinbrook,43.409112,-80.497253,EasyGO2951
2952,Tillsley / Westmount,43.409005,-80.49868,EasyGO2952
2953,Max Becker / Fischer-Hallman,43.405715,-80.50051,EasyGO2953
2954,Max Becker / Commonwealth,43.404262,-80.50315,EasyGO2954
2955,Max Becker / Copper Leaf,43.403603,-80.50743,EasyGO2955
2956,Activa / Donnenwerth,43.403077,-80.509797,EasyGO2956
2957,Activa / Periwinkle,43.402197,-80.512098,EasyGO2957
2958,Activa / Henhoeffer,43.402828,-80.515262,EasyGO2958
2959,Activa / Snowdrop,43.402882,-80.517938,EasyGO2959
2960,David Bergey / Peach Blossom,43.405712,-80.51839,EasyGO2960
2961,David Bergey / Peach Blossom,43.406932,-80.51882,EasyGO2961
2962,David Bergey / Ottawa,43.410383,-80.521995,EasyGO2962
2963,Path To Watercress,43.411662,-80.519825,EasyGO2963
2964,Ottawa / Wilderness,43.41264,-80.51693,EasyGO2964
2965,Wilderness / Pine Martin,43.410617,-80.513898,EasyGO2965
2966,Wilderness / Activa,43.41026,-80.510513,EasyGO2966
2967,Activa / Bush Clover,43.411203,-80.509642,EasyGO2967
2968,Activa / Grey Fox,43.413305,-80.50862803,EasyGO2968
2969,Fischer-Hallman / Ottawa,43.41657,-80.51087,EasyGO2969
2970,Fischer-Hallman / Greenbrook,43.421388,-80.516335,EasyGO2970
2971,Fischer-Hallman / Mcgarry,43.42342,-80.51881,EasyGO2971
2972,Forest Heights C.I.,43.425792,-80.521238,EasyGO2972
2973,Fischer-Hallman / Summit,43.427142,-80.522302,EasyGO2973
2974,Highland Hills Mall Terminal,43.430328,-80.525318,EasyGO2974
2975,Highland Hills Mall Terminal,43.430482,-80.525418,EasyGO2975
2976,Highland Hills Mall Terminal,43.43063,-80.525534,EasyGO2976
2977,Highland Hills Mall Terminal,43.430776,-80.525639,EasyGO2977
2979,Highland Hills Mall Terminal,43.430587,-80.525404,EasyGO2979
2980,Highland Hills Mall Terminal,43.430424,-80.525302,EasyGO2980
2981,Fischer-Hallman / Queens,43.428217,-80.523405,EasyGO2981
2982,Forest Heights C.I.,43.426167,-80.521777,EasyGO2982
2983,Fischer-Hallman / Mcgarry,43.42355406,-80.51929754,EasyGO2983
2984,Fischer-Hallman / Greenbrook,43.421347,-80.516505,EasyGO2984
2985,Fischer-Hallman / Ottawa,43.416377,-80.510997,EasyGO2985
2987,Activa / Wilderness,43.41046,-80.51003,EasyGO2987
2988,Wilderness / Mountain Mint,43.410733,-80.51387,EasyGO2988
2989,Wilderness / Grey Fox,43.411813,-80.515837,EasyGO2989
2990,Ottawa / International,43.412582,-80.517777,EasyGO2990
2991,Path To Wake Robin,43.411965,-80.519432,EasyGO2991
2992,David Bergey / Ottawa,43.410458,-80.522233,EasyGO2992
2993,David Bergey / Peach Blossom,43.406785,-80.518875,EasyGO2993
2994,David Bergey / Activa,43.405392,-80.518447,EasyGO2994
2995,Activa / Isaiah,43.403375,-80.520135,EasyGO2995
2996,Activa / Snowdrop,43.402748,-80.518067,EasyGO2996
2997,Activa / Reistview,43.40248,-80.514448,EasyGO2997
2998,Activa / Periwinkle,43.402057,-80.51224,EasyGO2998
2999,Activa / Sweet William,43.402567,-80.510258,EasyGO2999
3000,Max Becker / Copper Leaf,43.403383,-80.508098,EasyGO3000
3001,Max Becker / Commonwealth,43.40414,-80.503495,EasyGO3001
3002,Max Becker / Helena Feasby,43.404815,-80.501677,EasyGO3002
3003,Westmount / Block Line,43.410512,-80.499282,EasyGO3003
3004,Block Line / Westmount,43.41125895,-80.49907188,EasyGO3004
3005,Tillsley / Westmount,43.408988,-80.498035,EasyGO3005
3006,Tillsley / Erinbrook,43.408972,-80.4968,EasyGO3006
3007,Erinbrook / Ridgeway,43.407222,-80.496185,EasyGO3007
3008,Erinbrook / Rockwood,43.404395,-80.494788,EasyGO3008
3009,Erinbrook / Tamvale,43.404308,-80.493175,EasyGO3009
3010,Erinbrook / Marlis,43.404372,-80.491223,EasyGO3010
3011,Erinbrook / Rushbrook,43.404652,-80.489897,EasyGO3011
3012,Erinbrook / Thistledown,43.406163,-80.4866,EasyGO3012
3013,Erinbrook / Goundry,43.408398,-80.485075,EasyGO3013
3014,Erinbrook / Rittenhouse,43.409317,-80.485223,EasyGO3014
3015,Rittenhouse / Tuerr,43.410582,-80.482558,EasyGO3015
3016,Rittenhouse / Block Line,43.41375,-80.483188,EasyGO3016
3017,Strasburg / Block Line,43.416213,-80.480103,EasyGO3017
3018,Strasburg / Blackhorne,43.417113,-80.48115,EasyGO3018
3019,Strasburg / Selkirk,43.418672,-80.482857,EasyGO3019
3020,Strasburg / Kingswood,43.420998,-80.485432,EasyGO3020
3021,Kingswood / Lucerne,43.421432,-80.48456,EasyGO3021
3022,Kingswood / Flint,43.42316,-80.48165,EasyGO3022
3023,Kingswood / Appalachian,43.422832,-80.480267,EasyGO3023
3024,Kingswood / Alpine,43.422147,-80.478615,EasyGO3024
3025,Kingswood / Gracefield,43.420845,-80.475112,EasyGO3025
3026,Kingswood / Selkirk,43.419188,-80.474798,EasyGO3026
3027,Kingswood / Block Line,43.41815,-80.473332,EasyGO3027
3028,Country Hill / Block Line,43.416705,-80.475453,EasyGO3028
3029,Country Hill / Cherry Hill,43.415793,-80.47479,EasyGO3029
3030,Country Hill / Old Country,43.413895,-80.472605,EasyGO3030
3031,Country Hill / Coach Hill,43.41414,-80.470667,EasyGO3031
3032,Country Hill / Four Seasons,43.41348999,-80.46738297,EasyGO3032
3033,Country Hill / Martinglen,43.41097804,-80.46696796,EasyGO3033
3034,Century Hill / Devonglen,43.41122047,-80.47185531,EasyGO3034
3035,Old Country / Century Hill,43.411595,-80.474667,EasyGO3035
3036,Old Country / Strasburg,43.41136,-80.476057,EasyGO3036
3037,Old Country / Strasburg,43.411282,-80.475882,EasyGO3037
3038,Old Country / Century Hill,43.411707,-80.473785,EasyGO3038
3039,Path To Sandsprings,43.411113,-80.471162,EasyGO3039
3040,Country Hill / Martinglen,43.410957,-80.466785,EasyGO3040
3041,Country Hill / Four Seasons,43.414235,-80.468332,EasyGO3041
3042,Country Hill / Coach Hill,43.414275,-80.470423,EasyGO3042
3043,Country Hill / Cedarhill,43.415473,-80.474433,EasyGO3043
3044,Country Hill / Block Line,43.41702,-80.475477,EasyGO3044
3045,Kingswood / Block Line,43.418392,-80.473393,EasyGO3045
3046,Kingswood / Selkirk,43.41922,-80.47467,EasyGO3046
3047,Kingswood / Gracefield,43.421325,-80.475512,EasyGO3047
3048,Kingswood / Alpine,43.421997,-80.478115,EasyGO3048
3049,Kingswood / Flint,43.423242,-80.481777,EasyGO3049
3050,Kingswood / Roberts,43.422477,-80.48309,EasyGO3050
3051,Kingswood / Strasburg,43.421268,-80.485437,EasyGO3051
3052,Alpine / Ottawa,43.424981,-80.483083,EasyGO3052
3053,Alpine / Ottawa,43.42532,-80.483267,EasyGO3053
3054,Hoffman / Ottawa,43.431908,-80.479993,EasyGO3054
3055,Hoffman / Meinzinger,43.43208,-80.482665,EasyGO3055
3056,Hoffman / Kehl,43.431417,-80.4847,EasyGO3056
3057,Hoffman / Highland,43.430559,-80.487082,EasyGO3057
3058,Highland / Heiman,43.432938,-80.488807,EasyGO3058
3059,Heiman / Kehl,43.43439778,-80.48724003,EasyGO3059
3060,Heiman / Mill,43.435428,-80.485685,EasyGO3060
3061,Heiman / Kehl,43.434582,-80.487143,EasyGO3061
3062,Heiman / Highland,43.433473,-80.489007,EasyGO3062
3063,Hoffman / Highland,43.430535,-80.486868,EasyGO3063
3064,Hoffman / Kehl,43.431255,-80.484925,EasyGO3064
3065,Hoffman / Meinzinger,43.431972,-80.482695,EasyGO3065
3066,Hoffman / Donley,43.431985,-80.480962,EasyGO3066
3067,Hoffman / Ottawa,43.431788,-80.479768,EasyGO3067
3068,Queen / St. George,43.44715,-80.491977,EasyGO3068
3069,Queen / Schneider,43.444733,-80.49452,EasyGO3069
3070,Mill / Iron Horse Trail,43.441995,-80.492472,EasyGO3070
3071,Mill / Lansdowne,43.440185,-80.49053,EasyGO3071
3072,Spadina / Wentworth,43.4390118,-80.49121452,EasyGO3072
3073,Spadina / Highland,43.438943,-80.492757,EasyGO3073
3074,Stirling / Highland,43.43616,-80.491728,EasyGO3074
3075,Stirling / Lorne,43.435302,-80.494093,EasyGO3075
3076,Stirling / Mausser,43.434128,-80.496052,EasyGO3076
3077,Stirling / Lakeside Park,43.432897,-80.496142,EasyGO3077
3078,Stirling / Greenbrook,43.429232,-80.496403,EasyGO3078
3079,Southmoor / Yager,43.428332,-80.494897,EasyGO3079
3080,Southmoor / Avalon,43.426847,-80.49206,EasyGO3080
3081,Stirling / Avalon,43.426353,-80.495193,EasyGO3081
3082,Stirling / Southmoor,43.42808,-80.495823,EasyGO3082
3083,Greenbrook / Stirling,43.429408,-80.49729,EasyGO3083
3084,Greenbrook / Lakeside,43.429017,-80.498698,EasyGO3084
3085,Greenbrook / Forest Hill,43.428732,-80.501942,EasyGO3085
3086,Westmount / Village,43.427772,-80.506547,EasyGO3086
3087,Stonybrook / Westmount,43.425326,-80.50524,EasyGO3087
3088,Path To Forest Hill Pk.,43.424565,-80.507183,EasyGO3088
3089,Stonybrook / Village,43.424362,-80.510345,EasyGO3089
3090,Stonybrook / Greenbrook,43.424997,-80.511713,EasyGO3090
3091,Greenbrook / Birchcliff,43.424019,-80.512662,EasyGO3091
3092,Greenbrook / Ruskview,43.421765,-80.51302,EasyGO3092
3093,Greenbrook / Fischer-Hallman,43.420897,-80.515425,EasyGO3093
3094,Greenbrook / Ruskview,43.421042,-80.515015,EasyGO3094
3095,Greenbrook / Birchcliff,43.424055,-80.512514,EasyGO3095
3096,Forest Hill Shopping Ctr.,43.42608,-80.511095,EasyGO3096
3097,Greenbrook / Westmount,43.428213,-80.507058,EasyGO3097
3098,Greenbrook / Village,43.428535,-80.502678,EasyGO3098
3099,Greenbrook / Lakeside,43.428897,-80.499108,EasyGO3099
3100,Greenbrook / Stirling,43.429513,-80.496655,EasyGO3100
3101,Stirling / Lakeside Pk.,43.432833,-80.496008,EasyGO3101
3102,Stirling / Mausser,43.433675,-80.495942,EasyGO3102
3103,Stirling / Lorne,43.435333,-80.49378,EasyGO3103
3104,Stirling / Lorne,43.435898,-80.4922,EasyGO3104
3105,Highland / Spadina,43.438677,-80.492817,EasyGO3105
3106,Spadina / Mill,43.43891678,-80.49101437,EasyGO3106
3107,Mill / Lansdowne,43.440492,-80.490718,EasyGO3107
3108,Mill / Queen,43.443022,-80.49345,EasyGO3108
3109,Victoria / King,43.452308,-80.498568,EasyGO3109
3110,Victoria / Joseph,43.45078,-80.500063,EasyGO3110
3111,Victoria / Bramm,43.449512,-80.50142,EasyGO3111
3112,Victoria / Henry,43.447803,-80.503305,EasyGO3112
3113,Victoria / Patricia,43.444337,-80.508725,EasyGO3113
3114,Victoria / Belmont,43.443015,-80.512288,EasyGO3114
3115,Victoria / Alice,43.441828,-80.515257,EasyGO3115
3116,Victoria / Paulander,43.44068,-80.517703,EasyGO3116
3117,Victoria / Westmount,43.439743,-80.520727,EasyGO3117
3118,Chopin / Westmount,43.443407,-80.523163,EasyGO3118
3119,Chopin / Hazelglen,43.44069,-80.526673,EasyGO3119
3120,Victoria Hills Plaza,43.44074,-80.527032,EasyGO3120
3121,Hazelglen / Markwood,43.44148,-80.53157,EasyGO3121
3122,Ingleside / Hazelglen,43.440225,-80.534303,EasyGO3122
3123,Ingleside / Ingleside Place,43.439785,-80.531192,EasyGO3123
3124,Dalegrove / Ingleside,43.440447,-80.528352,EasyGO3124
3125,Victoria Hills Plaza,43.440663,-80.527048,EasyGO3125
3126,Hazelglen / Victoria,43.438627,-80.524195,EasyGO3126
3128,Victoria / Fenwick,43.437527,-80.526728,EasyGO3128
3129,Victoria / Fischer-Hallman,43.436318,-80.52972,EasyGO3129
3130,Victoria / Stoke,43.435092,-80.533263,EasyGO3130
3131,Path To Wexford,43.43436,-80.535575,EasyGO3131
3132,Victoria / Westforest,43.433322,-80.539823,EasyGO3132
3133,Westforest / Hidden Creek,43.430573,-80.543997,EasyGO3133
3134,Westforest / Westmeadow,43.4283,-80.544532,EasyGO3134
3135,Bankside / Westforest,43.42635,-80.543892,EasyGO3135
3136,Path To Highland,43.426697,-80.540788,EasyGO3136
3137,Bankside / Bankside Pk.,43.42789,-80.53791,EasyGO3137
3138,Bankside / Bankside Cres.,43.42893,-80.535682,EasyGO3138
3139,Bankside / Eastforest,43.4308,-80.5337,EasyGO3139
3140,Highland Hills Mall Terminal,43.430279,-80.525202,EasyGO3140
3141,Fischer-Hallman / Highland,43.432738,-80.526075,EasyGO3141
3142,Victoria / Fischer-Hallman,43.43654237,-80.52854122,EasyGO3142
3143,Fischer-Hallman / Victoria,43.436848,-80.529197,EasyGO3143
3144,Fischer-Hallman / Stoke,43.439465,-80.535423,EasyGO3144
3145,Bingemans Ctr. / Shirley,43.47334861,-80.44233529,EasyGO3145
3146,Fischer-Hallman / University,43.444408,-80.545685,EasyGO3146
3147,Shirley / Hesh,43.47485662,-80.4394553,EasyGO3147
3148,Shirley / Cedarview,43.4768494,-80.43377217,EasyGO3148
3149,Keats Way / Midwood,43.457873,-80.55446,EasyGO3149
3150,Keats Way / Midwood,43.457262,-80.551802,EasyGO3150
3151,Keats Way / Amos,43.45895056,-80.54839242,EasyGO3151
3153,Keats Way / Mcdougall,43.461213,-80.545248,EasyGO3153
3156,Keats Way / Mcdougall,43.46153,-80.545118,EasyGO3156
3158,Keats Way / Amos,43.459122,-80.548472,EasyGO3158
3159,Keats Way / Midwood,43.457327,-80.552013,EasyGO3159
3160,Keats Way / Candlewood,43.458187,-80.554582,EasyGO3160
3162,Fischer-Hallman / Keats,43.45785299,-80.55764871,EasyGO3162
3163,Shirley / Crestview,43.4779153,-80.43078349,EasyGO3163
3164,Shirley / Riverview,43.47913623,-80.42805781,EasyGO3164
3165,Fischer-Hallman / Thorndale,43.448563,-80.550302,EasyGO3165
3167,Fischer-Hallman / University,43.44353,-80.544692,EasyGO3167
3169,Fischer-Hallman / Stoke,43.43924718,-80.53558255,EasyGO3169
3170,Fischer-Hallman / Victoria,43.4360469,-80.52886197,EasyGO3170
3172,Fischer-Hallman / Bankside,43.43345773,-80.5268586,EasyGO3172
3173,Highland / Fischer-Hallman,43.431867,-80.524765,EasyGO3173
3174,Highland / Eagen,43.433023,-80.521888,EasyGO3174
3175,Highland / Fieldgate,43.433933,-80.519382,EasyGO3175
3176,Highland / Highland Crescent,43.435075,-80.516218,EasyGO3176
3178,Westmount / Overlea,43.435287,-80.512538,EasyGO3178
3179,Westmount / Queens,43.433618,-80.510268,EasyGO3179
3180,Westmount / Forest Hill,43.430268,-80.508555,EasyGO3180
3181,Westmount / Stonybrook,43.425273,-80.504518,EasyGO3181
3182,Westmount / Ottawa,43.42064,-80.502087,EasyGO3182
3183,Westmount / Ottawa,43.419307,-80.501738,EasyGO3183
3184,Westmount / Laurentian,43.416808,-80.501167,EasyGO3184
3185,Westmount / Williamsburg,43.412765,-80.500207,EasyGO3185
3186,Path To Killarney,43.411763,-80.496137,EasyGO3186
3187,Block Line / Strasburg,43.416085,-80.47942,EasyGO3187
3188,Path To Killarney,43.411805,-80.496658,EasyGO3188
3189,Block Line / Westmount,43.41148328,-80.49897846,EasyGO3189
3190,Westmount / Williamsburg,43.413222,-80.500135,EasyGO3190
3191,Westmount / Laurentian,43.417052,-80.501,EasyGO3191
3192,Westmount / Ottawa,43.41952,-80.501565,EasyGO3192
3193,Westmount / Stonybrook,43.425497,-80.504478,EasyGO3193
3194,Westmount / Village,43.427475,-80.506112,EasyGO3194
3195,Westmount / Forest Hill,43.431025,-80.508848,EasyGO3195
3196,Westmount / Queens,43.433308,-80.509872,EasyGO3196
3197,Westmount / Overlea,43.435407,-80.51246,EasyGO3197
3198,Highland / Westmount,43.435577,-80.5155,EasyGO3198
3199,Highland / Fieldgate,43.434017,-80.519622,EasyGO3199
3200,Highland / Highland Cres.,43.432635,-80.523322,EasyGO3200
3201,Highland / Highland Hills Mall,43.43096,-80.52795,EasyGO3201
3202,Bankside / Golden Terrace,43.430645,-80.533965,EasyGO3202
3203,Bankside / Bankside Pk.,43.427965,-80.538048,EasyGO3203
3204,Path To Hidden Creek,43.426775,-80.54091,EasyGO3204
3205,Bankside / Westforest,43.426443,-80.544447,EasyGO3205
3206,Westforest / Westmeadow,43.428273,-80.544327,EasyGO3206
3207,Westforest / Victoria,43.431403,-80.544275,EasyGO3207
3208,Victoria / Eastforest,43.43357,-80.538688,EasyGO3208
3209,Path To Wexford,43.434542,-80.534373,EasyGO3209
3210,Victoria / Oprington,43.434835,-80.533157,EasyGO3210
3212,Victoria / Monte Carlo,43.43763835,-80.52581758,EasyGO3212
3213,Victoria / Vicmount,43.438638,-80.522905,EasyGO3213
3214,Hazelglen / Mooregate,43.438807,-80.52431,EasyGO3214
3215,Hazelglen / Chopin,43.440347,-80.526422,EasyGO3215
3216,Chopin / Westmount,43.443355,-80.523068,EasyGO3216
3217,Westmount / Karn,43.441893,-80.522457,EasyGO3217
3218,Victoria / Westmount,43.43965,-80.520297,EasyGO3218
3219,Victoria / Paulander,43.440593,-80.517425,EasyGO3219
3220,Victoria / Lawrence,43.441975,-80.514685,EasyGO3220
3221,Victoria / Patricia,43.444345,-80.508253,EasyGO3221
3222,Victoria / West,43.444883,-80.506537,EasyGO3222
3224,Victoria / Park,43.448228,-80.5026,EasyGO3224
3225,Victoria / Michael,43.449303,-80.501435,EasyGO3225
3226,Victoria / King,43.452625,-80.49812,EasyGO3226
3227,Victoria / Joseph,43.450875,-80.499673,EasyGO3227
3228,Fairview Park Terminal,43.422984,-80.441007,EasyGO3228
3229,Ottawa / Strasburg,43.42294,-80.487324,EasyGO3229
3230,Moore / Wellington,43.45484,-80.501108,EasyGO3230
3231,Moore / Shanley,43.45653,-80.502163,EasyGO3231
3235,Moore / Roger,43.461723,-80.509325,EasyGO3235
3236,Moore / Union,43.462708,-80.510397,EasyGO3236
3237,Union / Lucan,43.46303,-80.511908,EasyGO3237
3238,Union / Herbert,43.460439,-80.514335,EasyGO3238
3239,Union / King,43.458883,-80.515292,EasyGO3239
3240,Union / Park,43.457295,-80.516278,EasyGO3240
3241,Park / Union,43.456432,-80.515537,EasyGO3241
3242,Park / Wood,43.455787,-80.513562,EasyGO3242
3243,Park / Glasgow,43.454373,-80.510632,EasyGO3243
3244,Glasgow / York,43.453325,-80.513162,EasyGO3244
3245,Glasgow / Eden,43.452394,-80.515711,EasyGO3245
3253,Westwood / Westwood Cres.,43.445138,-80.529582,EasyGO3253
3254,Westwood / Knell,43.444945,-80.531647,EasyGO3254
3255,Westwood / Huntington,43.444122,-80.532788,EasyGO3255
3256,Westwood / Gallarno,43.442513,-80.535163,EasyGO3256
3257,Westwood / Dayman,43.441892,-80.537297,EasyGO3257
3258,Westwood / Glasgow,43.443648,-80.540149,EasyGO3258
3259,Glasgow / Fischer-Hallman,43.443022,-80.542182,EasyGO3259
3260,University / Fischer-Hallman,43.44344,-80.545728,EasyGO3260
3264,University / Countrystone Pl.,43.440023,-80.551142,EasyGO3264
3265,Resurrection C.S.S.,43.441181,-80.547371,EasyGO3265
3266,Westwood / Glasgow,43.443403,-80.540043,EasyGO3266
3267,Westwood / Dayman,43.4417,-80.538622,EasyGO3267
3268,Westwood / Gallarno,43.44227,-80.535675,EasyGO3268
3269,Westwood / Fernwood,43.445005,-80.531147,EasyGO3269
3270,Westwood / Westwood Cres.,43.445065,-80.529752,EasyGO3270
3271,Westwood / Inwood,43.445189,-80.527392,EasyGO3271
3278,Glasgow / York,43.452935,-80.513885,EasyGO3278
3279,Park / Green,43.454682,-80.510795,EasyGO3279
3281,Union / Park,43.457445,-80.516048,EasyGO3281
3282,Union / King,43.458278,-80.515557,EasyGO3282
3283,Union / Mary,43.459452,-80.514837,EasyGO3283
3284,Union / Herbert,43.460602,-80.514108,EasyGO3284
3285,Union / Lucan,43.462668,-80.51234,EasyGO3285
3286,Moore / Union,43.462943,-80.510807,EasyGO3286
3292,Moore / Breithaupt,43.454498,-80.501023,EasyGO3292
3293,Queens / Highland,43.440382,-80.498818,EasyGO3293
3294,Queens / Spadina,43.439215,-80.50004,EasyGO3294
3295,Queens / St. Marys Hospital,43.438515,-80.501655,EasyGO3295
3296,Queens / Belmont,43.43667,-80.50353,EasyGO3296
3297,Queens / Community Trail,43.435275,-80.505955,EasyGO3297
3298,Queens / Hahn,43.434167,-80.508267,EasyGO3298
3299,Queens / Westmount,43.433278,-80.510848,EasyGO3299
3300,Queens / Cecile,43.432157,-80.51392,EasyGO3300
3301,Cecile / Overlea,43.433545,-80.515513,EasyGO3301
3302,Overlea / Ralgreen,43.43313,-80.517245,EasyGO3302
3303,Queens / Silverspring,43.430555,-80.51773,EasyGO3303
3304,Queens / Eagen,43.429662,-80.52021,EasyGO3304
3305,Queens / Overlea,43.42922,-80.52246,EasyGO3305
3306,Queens / Fischer-Hallman,43.428553,-80.524327,EasyGO3306
3307,Queens / Highland Hills Mall,43.427698,-80.526523,EasyGO3307
3308,Elm Ridge / Queens,43.426645,-80.52758,EasyGO3308
3309,Elm Ridge / Hillbrook,43.425672,-80.526443,EasyGO3309
3310,Elm Ridge / Silver Aspen,43.423747,-80.525033,EasyGO3310
3311,Elm Ridge / Ramblewood,43.422587,-80.522692,EasyGO3311
3312,Forestwood / Mcgarry,43.421483,-80.521598,EasyGO3312
3313,Forestwood / Forest Glen,43.420128,-80.51942,EasyGO3313
3314,Forestwood / Glen Avon,43.418898,-80.520047,EasyGO3314
3315,Forestwood / Meadowbrook,43.418107,-80.522345,EasyGO3315
3316,Forestwood / Meadowlane,43.41955,-80.526467,EasyGO3316
3317,Mcgarry / Royal Orchard,43.419538,-80.528697,EasyGO3317
3318,Westheights / Mcgarry,43.419552,-80.53039,EasyGO3318
3319,Westheights / Lorilee,43.419185,-80.533138,EasyGO3319
3320,Driftwood / Westheights,43.417872,-80.534615,EasyGO3320
3321,Driftwood / Royal Orchard,43.416212,-80.534271,EasyGO3321
3322,Driftwood / Parkland,43.413483,-80.535675,EasyGO3322
3323,Driftwood / Driftwood Pk.,43.412305,-80.537833,EasyGO3323
3324,Yellow Birch / Driftwood,43.413208,-80.539873,EasyGO3324
3325,Yellow Birch / Cedar Crest,43.411948,-80.542053,EasyGO3325
3326,Yellow Birch / Stonehenge,43.4114,-80.545153,EasyGO3326
3327,Yellow Birch / Golden Meadow,43.412363,-80.549067,EasyGO3327
3328,Golden Meadow / Highview,43.415237,-80.550615,EasyGO3328
3329,Highview / Sugar Maple,43.415675,-80.54721,EasyGO3329
3330,Highview / Highview Place,43.416327,-80.542825,EasyGO3330
3331,Driftwood / Rolling Meadows,43.417263,-80.54062,EasyGO3331
3332,Driftwood / Westheights,43.419118,-80.538958,EasyGO3332
3333,Westheights / Driftwood Ctr.,43.418353,-80.53508,EasyGO3333
3334,Westheights / Lorilee,43.419178,-80.532307,EasyGO3334
3335,Mcgarry / Royal Orchard,43.419442,-80.528395,EasyGO3335
3336,Mcgarry / Forestwood,43.419918,-80.526953,EasyGO3336
3337,Mcgarry / Meadowbrook,43.420658,-80.524857,EasyGO3337
3338,Mcgarry / Pinehurst,43.421548,-80.522407,EasyGO3338
3340,Elm Ridge / Hickory Heights,43.422638,-80.521568,EasyGO3340
3341,Elm Ridge / Hickory Heights,43.424297,-80.525387,EasyGO3341
3342,Elm Ridge / Hillbrook,43.425283,-80.526045,EasyGO3342
3343,Queens / Highland Hills Mall,43.427607,-80.52634,EasyGO3343
3344,Queens / Bonfair,43.429507,-80.520355,EasyGO3344
3345,Queens / Silverspring,43.430235,-80.51814,EasyGO3345
3346,Queens / Warren,43.431543,-80.515265,EasyGO3346
3347,Queens / Cecile,43.432382,-80.512898,EasyGO3347
3348,Queens / Westmount,43.433163,-80.510683,EasyGO3348
3349,Queens / Blueridge,43.43406,-80.508183,EasyGO3349
3350,Queens / Community Trail,43.435197,-80.505828,EasyGO3350
3351,Queens / Belmont,43.43633,-80.503788,EasyGO3351
3352,Queens / South,43.437062,-80.502088,EasyGO3352
3353,Queens / St. Marys Hospital,43.437675,-80.500898,EasyGO3353
3354,Queens / Spadina,43.439347,-80.499678,EasyGO3354
3355,Queens / Highland,43.440595,-80.498447,EasyGO3355
3356,Highland / Belmont,43.439443,-80.508153,EasyGO3356
3357,Highland / Lawrence,43.438092,-80.510585,EasyGO3357
3358,Highland / Westmount,43.43639,-80.513563,EasyGO3358
3359,Queens / Westheights,43.426763,-80.529348,EasyGO3359
3360,Westheights / Blackwell,43.428288,-80.530528,EasyGO3360
3361,Path To Bankside,43.426218,-80.540687,EasyGO3361
3362,Westheights / Highland,43.424615,-80.543928,EasyGO3362
3363,Rolling Meadows / Westheights,43.422693,-80.543187,EasyGO3363
3364,Rolling Meadows / Newbury,43.422482,-80.545558,EasyGO3364
3365,Rolling Meadows / Newbury,43.420043,-80.548317,EasyGO3365
3366,Rolling Meadows / Trailwood,43.418335,-80.545575,EasyGO3366
3367,Rolling Meadow / Meadow Wood,43.41771,-80.543112,EasyGO3367
3368,Driftwood / Highview,43.416888,-80.541103,EasyGO3368
3369,Driftwood / Old Forest,43.41583,-80.54118,EasyGO3369
3370,Driftwood / Driftwood Place,43.414347,-80.540648,EasyGO3370
3371,Driftwood / Yellow Birch,43.412892,-80.539253,EasyGO3371
3372,Driftwood / Driftwood Pk.,43.41225,-80.53763,EasyGO3372
3373,Driftwood / Somerfield,43.413708,-80.535398,EasyGO3373
3374,Driftwood / Royal Orchard,43.416557,-80.534068,EasyGO3374
3375,Driftwood / Westheights,43.418053,-80.53458,EasyGO3375
3376,Westheights / Winding,43.418652,-80.537137,EasyGO3376
3377,Westheights / Broken Oak,43.420517,-80.54039,EasyGO3377
3378,Westheights / Blackwell,43.422388,-80.541747,EasyGO3378
3379,Westheights / Highland,43.424983,-80.543948,EasyGO3379
3380,Path To Bankside,43.42621,-80.540313,EasyGO3380
3381,Westheights / Highland,43.428992,-80.531257,EasyGO3381
3382,Westheights / Blackwell,43.427452,-80.530157,EasyGO3382
3383,Queens / Elm Ridge,43.426723,-80.528675,EasyGO3383
3384,Highview / Sugar Maple,43.41569,-80.547488,EasyGO3384
3385,Highview / Old Maple,43.415528,-80.549697,EasyGO3385
3386,Golden Meadow / Yellow Birch,43.412407,-80.549352,EasyGO3386
3387,Yellow Birch / Stonehenge,43.411312,-80.545255,EasyGO3387
3388,Yellow Birch / Driftwood,43.413202,-80.539692,EasyGO3388
3389,Highland / Westmount,43.436292,-80.513232,EasyGO3389
3390,Highland / Lawrence,43.437953,-80.51043,EasyGO3390
3391,Highland / Belmont,43.439513,-80.50776,EasyGO3391
3392, Erbsville / White Elm, 43.466694, -80.586075,EasyGO3392
3394,Saginaw / Haddaway,43.394946,-80.274782,EasyGO3394
3396,Coulthard / Arthur Fach,43.40527266,-80.2807072,EasyGO3396
3397,Coulthard / Baintree,43.404142,-80.284498,EasyGO3397
3398,Can-Amera / Baintree,43.40543253,-80.28709983,EasyGO3398
3399,Burnett / Can-Amera,43.398275,-80.292903,EasyGO3399
3408,Jamieson / Woodland Plaza,43.418162,-80.308162,EasyGO3408
3409,Jamieson / Commerce,43.417413,-80.303167,EasyGO3409
3410,Jamieson / Alona,43.418855,-80.294193,EasyGO3410
3411,Jamieson / Cooper,43.42068765,-80.28990875,EasyGO3411
3412,Adler / Tyndale,43.427177,-80.288072,EasyGO3412
3413,Adler / Cooper,43.42544,-80.293095,EasyGO3413
3414,Hammet / Black,43.431815,-80.300185,EasyGO3414
3415,Renwick / Gerrard,43.432765,-80.300917,EasyGO3415
3416,Renwick / Walker,43.436255,-80.302567,EasyGO3416
3422,Trico / Chateau,43.401227,-80.336738,EasyGO3422
3423,Trico / Newport,43.402963,-80.337327,EasyGO3423
3424,Trico / New Haven,43.404617,-80.338565,EasyGO3424
3425,Trico / Providence,43.404447,-80.3407,EasyGO3425
3426,Mortimer / Hyannis,43.401835,-80.343625,EasyGO3426
3427,Walter / Langs,43.398878,-80.340598,EasyGO3427
3428,Valentine / Michael,43.396695,-80.337607,EasyGO3428
3429,Valentine / Mary,43.3961,-80.340542,EasyGO3429
3430,Mary / Bishop,43.392573,-80.339807,EasyGO3430
3432,Golden Eagle / Northlake,43.498383,-80.552443,EasyGO3432
3433,Northlake / Mayview,43.499223,-80.554127,EasyGO3433
3434,Bluevale C.I. 3,43.475557,-80.50052,EasyGO3434
3435,Bluevale C.I. 2,43.475617,-80.500323,EasyGO3435
3436,Bluevale C.I. 1,43.475664,-80.5002,EasyGO3436
3442,Chesapeake / Mariner,43.50671,-80.508917,EasyGO3442
3443,Chesapeake / Seawind,43.511678,-80.510272,EasyGO3443
3444,Chesapeake / Spinnaker,43.509732,-80.516098,EasyGO3444
3445,Fischer-Hallman / Columbia,43.46719272,-80.56595141,EasyGO3445
3446,Erbsville / Keats Way,43.455112,-80.573673,EasyGO3446
3447,Royal Beech / Erbsville,43.450895,-80.57024,EasyGO3447
3454,Erbsville / Columbia Forest,43.464902,-80.584188,EasyGO3454
3455,Erbsville / Columbia,43.462255,-80.581285,EasyGO3455
3456,Erbsville / Leighland,43.457547,-80.576227,EasyGO3456
3460,Columbia / Bennington,43.464653,-80.57452,EasyGO3460
3463,Keats Way / Sandford Fleming,43.456003,-80.561735,EasyGO3463
3464,Keats Way / Fischer-Hallman,43.4581939,-80.55725524,EasyGO3464
3465,Fischer-Hallman / Keats Way,43.45837446,-80.55782441,EasyGO3465
3473,St. Marys H.S. 12,43.422082,-80.468292,EasyGO3473
3474,St. Marys H.S. 11,43.4219,-80.468168,EasyGO3474
3476,St. Marys H.S. 9,43.421453,-80.46789,EasyGO3476
3477,St. Marys H.S. 8,43.421258,-80.467712,EasyGO3477
3478,St. Marys H.S. 7,43.421057,-80.467453,EasyGO3478
3479,St. Marys H.S. 6,43.420917,-80.467153,EasyGO3479
3480,St. Marys H.S. 5,43.420885,-80.467008,EasyGO3480
3481,St. Marys H.S. 4,43.420853,-80.466833,EasyGO3481
3482,St. Marys H.S. 3,43.420823,-80.466652,EasyGO3482
3483,St. Marys H.S. 2,43.420828,-80.46654,EasyGO3483
3484,St. Marys H.S. 1,43.420842,-80.46638,EasyGO3484
3486,Block Line / Country Hill,43.417152,-80.476262,EasyGO3486
3488,Block Line / Country Hill,43.417062,-80.476083,EasyGO3488
3489,Laurentian / Dunsmere,43.417072,-80.49382,EasyGO3489
3490,Laurentian / Shea,43.418272,-80.494462,EasyGO3490
3491,Howland / Laurentian,43.418948,-80.495937,EasyGO3491
3492,Howland / Ottawa,43.420907,-80.49728,EasyGO3492
3493,Ottawa / Nine Pines,43.417663,-80.510273,EasyGO3493
3494,Ottawa / Sunrise Ctr.,43.414987,-80.513617,EasyGO3494
3495,Activa / Max Becker,43.406477,-80.512383,EasyGO3495
3496,Activa / Copper Leaf,43.408343,-80.510985,EasyGO3496
3498,Ottawa / Valleyview,43.418112,-80.509308,EasyGO3498
3499,Westmount / Tillsley,43.40998,-80.499323,EasyGO3499
3500,Westheights / Autumn Hill,43.42238,-80.529225,EasyGO3500
3501,Westheights / Summerhill,43.422655,-80.542218,EasyGO3501
3502,Kinzie / River,43.436775,-80.430987,EasyGO3502
3503,Old Chicopee / Bancroft,43.440002,-80.43223,EasyGO3503
3504,Old Chicopee / Daimler,43.443083,-80.431268,EasyGO3504
3505,Old Chicopee / Roehampton,43.445642,-80.433643,EasyGO3505
3506,Oldfield / Wendy,43.449793,-80.424368,EasyGO3506
3507,Oldfield / Brierdale,43.449105,-80.426568,EasyGO3507
3508,Old Chicopee / Conway,43.449752,-80.43821,EasyGO3508
3510,Winston / Heather,43.421238,-80.313745,EasyGO3510
3511,Queen / Winston,43.427642,-80.318508,EasyGO3511
3512,Kerwood / Ellis,43.429685,-80.288827,EasyGO3512
3513,Rife / Bella,43.429465,-80.304333,EasyGO3513
3514,Pinebush / Franklin,43.411617,-80.307628,EasyGO3514
3517,Cambridge Ctr. Terminal,43.391123,-80.319857,EasyGO3517
3518,Industrial / Langs,43.4006887,-80.33107629,EasyGO3518
3519,Concession / Trico,43.402215,-80.346653,EasyGO3519
3520,Dover / Rose,43.393222,-80.367597,EasyGO3520
3521,Rose / Westminster,43.390792,-80.363468,EasyGO3521
3522,Laurel / North,43.400862,-80.354707,EasyGO3522
3524,Fountain / Blair,43.386152,-80.389268,EasyGO3524
3525,Fountain / Blair,43.385395,-80.39139,EasyGO3525
3526,Westminster / Laurel,43.39945,-80.354483,EasyGO3526
3527,Hespeler / Abbotsford,43.379983,-80.319342,EasyGO3527
3531,Maple Grove / Saltsman,43.421942,-80.38379,EasyGO3531
3532,Rose / Lowther,43.389377,-80.360732,EasyGO3532
3534,St. Andrews / Gilholm,43.353643,-80.322523,EasyGO3534
3535,Main / Harris,43.358803,-80.310165,EasyGO3535
3536,Wellington / Dickson,43.359972,-80.311453,EasyGO3536
3537,Hespeler / Can-Amera,43.386303,-80.32104,EasyGO3537
3538,Hespeler / Can-Amera,43.386365,-80.321347,EasyGO3538
3539,Hespeler / Isherwood,43.383093,-80.32048,EasyGO3539
3540,Queen / Adam,43.43098304,-80.31126755,EasyGO3540
3541,Guelph / Milton,43.440022,-80.313213,EasyGO3541
3542,Kerwood / Housler,43.432588,-80.29392,EasyGO3542
3543,Pinebush / Wayne,43.410883,-80.311593,EasyGO3543
3544,777 Industrial Rd.,43.40380014,-80.33208362,EasyGO3544
3545,Industrial / Eagle,43.407048,-80.333163,EasyGO3545
3546,Sheldon / Thompson,43.408218,-80.295728,EasyGO3546
3547,180 Sheldon Dr.,43.404702,-80.310327,EasyGO3547
3558,Huron Heights S.S.,43.394083,-80.466445,EasyGO3558
3564,Victoria / Belmont,43.443292,-80.511228,EasyGO3564
3565,Victoria / West,43.446092,-80.505015,EasyGO3565
3566,280 Victoria St. S.,43.445073,-80.506575,EasyGO3566
3567,Highland / Eagen,43.433195,-80.521897,EasyGO3567
3568,Fairway / Sims Estate,43.439812,-80.420628,EasyGO3568
3569,Lackner / Bryan,43.452305,-80.424837,EasyGO3569
3570,Fairway / Briarmeadow,43.439837,-80.420918,EasyGO3570
3571,Centennial / Victoria,43.475264,-80.429204,EasyGO3571
3572,Centennial / Forwell,43.472242,-80.432357,EasyGO3572
3573,Forwell / Victoria,43.47314,-80.43678,EasyGO3573
3574,River / Gibson,43.45505,-80.446965,EasyGO3574
3575,Frederick / Weber,43.45119,-80.486133,EasyGO3575
3576,Weber / Eastwood S.S.,43.438925,-80.46068,EasyGO3576
3578,Krug / Lancaster,43.4497,-80.480825,EasyGO3578
3579,King / Pandora,43.445208,-80.479098,EasyGO3579
3580,Weber / Via Rail Station,43.455165,-80.493923,EasyGO3580
3581,King / Ezra,43.47231381,-80.52427451,EasyGO3581
3584,Sir John A Macdonald S.S. 1,43.472128,-80.595332,EasyGO3584
3585,Fischer-Hallman / Roxton,43.464462,-80.56321,EasyGO3585
3587,Fischer-Hallman / Winchester,43.455348,-80.55564,EasyGO3587
3589,University / Westmount,43.464499,-80.541456,EasyGO3589
3590,Fischer-Hallman / Erb,43.4527,-80.55381,EasyGO3590
3592,Northland / Frobisher,43.50591,-80.535415,EasyGO3592
3593,Bridge / Frobisher,43.5119903,-80.52253964,EasyGO3593
3594,New Bedford / Starboard,43.510612,-80.50429,EasyGO3594
3595,New Bedford / Eastbridge,43.51108,-80.50092,EasyGO3595
3596,University / Parkwood Manor,43.516365,-80.501177,EasyGO3596
3597,Path To Angler,43.51495,-80.49962,EasyGO3597
3598,New Bedford / Starboard,43.510665,-80.504433,EasyGO3598
3599,New Bedford / Chesapeake,43.510068,-80.50566,EasyGO3599
3604,Northfield / Bridge,43.510687,-80.522143,EasyGO3604
3605,Kumpf / Randall,43.504295,-80.544678,EasyGO3605
3606,Weber / Erb,43.468624,-80.511143,EasyGO3606
3607,Bleams / Fallowfield,43.411071,-80.456915,EasyGO3607
3608,Bleams / Fallowfield,43.411013,-80.457794,EasyGO3608
3609,Coronation / Highland,43.382533,-80.33431,EasyGO3609
3612,Langlaw / Schroeder,43.336582,-80.30108,EasyGO3612
3614,Fairway / Fairview Park Mall,43.421602,-80.440085,EasyGO3614
3615,Westwood / Westmount,43.446473,-80.523251,EasyGO3615
3616,Ottawa,43.441378,-80.47277,EasyGO3616
3617,Ottawa,43.441487,-80.4727,EasyGO3617
3618,Courtland / Stirling,43.44131405,-80.48477028,EasyGO3618
3619,Laurier,43.47524,-80.5279,EasyGO3619
3620,Laurier,43.47513,-80.52755,EasyGO3620
3621,University / King,43.475772,-80.526363,EasyGO3621
3622,Lexington / Dearborn,43.487023,-80.518227,EasyGO3622
3623,Hazel / Columbia,43.480087,-80.531902,EasyGO3623
3627,Mccormick,43.489252,-80.545615,EasyGO3627
3628,Mccormick,43.489357,-80.545395,EasyGO3628
3629,R & T Park,43.47925,-80.549587,EasyGO3629
3630,R & T Park,43.47897,-80.549022,EasyGO3630
3631,University / Westmount,43.464127,-80.541383,EasyGO3631
3637,Elm Ridge / Queens,43.426985,-80.527673,EasyGO3637
3638,Westforest / Bankside,43.426197,-80.54454,EasyGO3638
3639,Highland / Highland Hls Mall,43.43101,-80.527137,EasyGO3639
3640,Queensmount P.S.,43.43392,-80.510372,EasyGO3640
3641,Conestoga College Entrance,43.38847,-80.41105,EasyGO3641
3642,Weber / Broadview,43.435022,-80.449717,EasyGO3642
3645,Fountain / Maple Grove,43.424225,-80.378415,EasyGO3645
3646,Boxwood / Maple Grove,43.42813,-80.365,EasyGO3646
3647,Boxwood / Vondrau,43.430573,-80.371108,EasyGO3647
3648,Boxwood / Vondrau,43.429887,-80.375042,EasyGO3648
3649,Vondrau / Maple Grove,43.425612,-80.373865,EasyGO3649
3655,Westheights / Driftwood,43.419475,-80.539277,EasyGO3655
3656,Chesapeake / New Bedford,43.509923,-80.505552,EasyGO3656
3657,Lancaster / Hwy 85 Ramp,43.472052,-80.4843,EasyGO3657
3658,Uptown Waterloo,43.463893,-80.522139,EasyGO3658
3659,Franklin / Can-Amera,43.3943,-80.3032,EasyGO3659
3660,Franklin / Can-Amera,43.3945,-80.303,EasyGO3660
3661,Eckert / Dixon,43.4344,-80.4588,EasyGO3661
3662,University / Baker,43.437591,-80.55871511,EasyGO3662
3663,University / Baker,43.437848,-80.557482,EasyGO3663
3664,University / Countrystone Dr.,43.4392,-80.5537,EasyGO3664
3665,University / Pastern,43.49194633,-80.49095745,EasyGO3665
3666,University / Wismer,43.4952,-80.49,EasyGO3666
3667,Auburn / Bronco,43.4975,-80.4929,EasyGO3667
3669,Auburn / University,43.4976,-80.492,EasyGO3669
3670,University / Wismer,43.4956,-80.4905,EasyGO3670
3671,University / Pastern,43.4919,-80.4913,EasyGO3671
3672,Bridge / University,43.4901,-80.4947,EasyGO3672
3673,Bridge / Crimson,43.4929,-80.4977,EasyGO3673
3674,Dansbury / Eiwo,43.4958,-80.5024,EasyGO3674
3675,Dansbury / Lee,43.4947,-80.5047,EasyGO3675
3676,Dunvegan / Bairstow,43.4936,-80.5084,EasyGO3676
3677,Lexington / Dunvegan,43.4945,-80.5102,EasyGO3677
3678,Dunvegan / Bairstow,43.4935,-80.5085,EasyGO3678
3679,Dansbury / Bridge,43.4959,-80.502,EasyGO3679
3680,Bridge / Crimson,43.4921,-80.4971,EasyGO3680
3681,Bridge / University,43.4895,-80.4943,EasyGO3681
3682,Hazel / University,43.4752,-80.5282,EasyGO3682
3683,University / Seagram,43.4689,-80.5391,EasyGO3683
3685,Erbsville / Erb,43.4479,-80.5726,EasyGO3685
3689,Erbsville / Erb,43.448,-80.5725,EasyGO3689
3690,Erbsville / Royal Beech,43.4509,-80.5721,EasyGO3690
3691,Path To Erbsville,43.4533,-80.5719,EasyGO3691
3692,Keats Way / Keatswood,43.4558,-80.5732,EasyGO3692
3693,Keats Way /  Beechwood,43.4565,-80.5711,EasyGO3693
3694,Keats Way / Leighland,43.4575,-80.5682,EasyGO3694
3695,Keats Way / Brynhurst,43.4567,-80.5649,EasyGO3695
3697,Lake Louise / Kelso,43.4907,-80.5813,EasyGO3697
3698,Lake Louise / Pinery,43.4926,-80.5816,EasyGO3698
3699,U.W. - Davis Centre,43.473521,-80.541776,EasyGO3699
3700,U.W. - B.C. Matthews Hall,43.4742,-80.5456,EasyGO3700
3701,Resurrection C.S.S. 1,43.44,-80.5483,EasyGO3701
3702,Resurrection C.S.S. 2,43.44,-80.5482,EasyGO3702
3703,Resurrection C.S.S. 3,43.4401,-80.548,EasyGO3703
3704,Resurrection C.S.S. 4,43.4402,-80.5478,EasyGO3704
3705,Resurrection C.S.S. 6,43.4403,-80.5473,EasyGO3705
3706,Resurrection C.S.S. 5,43.4402,-80.5476,EasyGO3706
3707,St David C.S.S. 1,43.485,-80.5286,EasyGO3707
3708,St David C.S.S. 2,43.485,-80.5287,EasyGO3708
3709,St David C.S.S. 3,43.4851,-80.5289,EasyGO3709
3710,St David C.S.S. 4,43.4851,-80.5291,EasyGO3710
3711,St David C.S.S. 5,43.4851,-80.5293,EasyGO3711
3712,St David C.S.S. 6,43.4852,-80.5294,EasyGO3712
3714,Kitchener C.I.,43.4564,-80.5098,EasyGO3714
3715,Eastwood S.S.,43.4393,-80.4613,EasyGO3715
3719,Uptown Waterloo,43.4638,-80.5221,EasyGO3719
3720,Park / Mt. Hope,43.4562,-80.5145,EasyGO3720
3723,860 Trillium Dr.,43.4001,-80.4847,EasyGO3723
3724,825 Trillium Dr.,43.3996,-80.4842,EasyGO3724
3725,Fairway / Lackner,43.4426,-80.4159,EasyGO3725
3726,Lackner / Fairway,43.4433,-80.4151,EasyGO3726
3727,King / Martin Grove,43.5103,-80.543,EasyGO3727
3728,King / Bridge,43.5101,-80.543,EasyGO3728
3729,Sawmill / Arthur,43.5434,-80.5479,EasyGO3729
3730,King / Scott,43.4482,-80.4855,EasyGO3730
3731,Fairway / River,43.4348,-80.4281,EasyGO3731
3733,Parkvale / Huron,43.3893,-80.4721,EasyGO3733
3734,Parkvale / Huron Natural Pk.,43.39,-80.4745,EasyGO3734
3735,Parkvale / Woodbine,43.3893,-80.4788,EasyGO3735
3736,Parkvale / Huron Pk.,43.3896,-80.482,EasyGO3736
3737,Parkvale / Woodbine,43.3889,-80.4857,EasyGO3737
3738,Woodbine / Sophia,43.3867,-80.4846,EasyGO3738
3739,Woodbine / Huron,43.3835,-80.4834,EasyGO3739
3740,Huron / Cranshaw,43.3867,-80.475,EasyGO3740
3741,Huron / Newcastle,43.3889,-80.4718,EasyGO3741
3742,Fountain /Comdev Soccer Dome,43.4093,-80.3732,EasyGO3742
3743,William / Caroline,43.4611,-80.5219,EasyGO3743
3744,Wellington / Weber,43.4571,-80.495,EasyGO3744
3745,Conservation / Waterton,43.4914,-80.578,EasyGO3745
3746,Pioneer / Bechtel,43.3937,-80.4367,EasyGO3746
3747,Columbia / Marsland,43.4843,-80.5197,EasyGO3747
3748,Lexington / Dearborn Blvd.,43.49,-80.5169,EasyGO3748
3749,Lexington / Bridge,43.498,-80.505,EasyGO3749
3750,University / New Bedford,43.5108,-80.4975,EasyGO3750
3751,University / Woolwich Pl.,43.5078,-80.4974,EasyGO3751
3752,University / R.I.M. Park,43.518,-80.5028,EasyGO3752
3753,University / Country Squire,43.5189,-80.5087,EasyGO3753
3754,Northfield / University,43.5172,-80.5179,EasyGO3754
3755,Northfield / Toman,43.5146,-80.5195,EasyGO3755
3756,Northfield / Bridge,43.5119,-80.5213,EasyGO3756
3757,Frobisher / Bridge,43.5119,-80.5233,EasyGO3757
3758,Frobisher / Superior,43.5102,-80.5244,EasyGO3758
3759,Frobisher / Mcmurray,43.5076,-80.5266,EasyGO3759
3760,Frobisher / Superior,43.5099,-80.5245,EasyGO3760
3761,Northfield / Bridge,43.5123,-80.5208,EasyGO3761
3762,Northfield / Toman,43.5142,-80.5196,EasyGO3762
3763,University / Northfield,43.517302,-80.515966,EasyGO3763
3764,University / Country Squire,43.5186,-80.5092,EasyGO3764
3765,University / R.I.M. Park,43.5176,-80.5027,EasyGO3765
3766,University / New Bedford,43.5113,-80.4978,EasyGO3766
3767,University / Woolwich,43.5082,-80.4977,EasyGO3767
3768,Bridge / Lexington,43.498,-80.5053,EasyGO3768
3769,Lexington / Dearborn,43.4905,-80.5164,EasyGO3769
3770,Lexington / Dearborn,43.4875,-80.5185,EasyGO3770
3771,Columbia / Marsland,43.4841,-80.5205,EasyGO3771
3772,Columbia / Weber,43.483,-80.5236,EasyGO3772
3773,Columbia / Weber,43.4827,-80.5239,EasyGO3773
3774,Weber / Glen Forrest,43.4945,-80.5484,EasyGO3774
3775,Parkside / Weber,43.4934,-80.5444,EasyGO3775
3776,551 Parkside Dr.,43.4949,-80.5445,EasyGO3776
3777,Parkside / Northfield,43.4969,-80.5459,EasyGO3777
3780,Chesapeake / Seawind,43.5113,-80.5097,EasyGO3780
3781,Chesapeake / Brigantine,43.5091,-80.5173,EasyGO3781
3782,Chesapeake / Sandy Cove,43.5101,-80.5064,EasyGO3782
3783,Bridge / Whitmore,43.5007,-80.5064,EasyGO3783
3784,Bridge / Lexington,43.4981,-80.5036,EasyGO3784
3785,Dansbury / Camille,43.4965,-80.501,EasyGO3785
3786,Dansbury / Palamino,43.4979,-80.4944,EasyGO3786
3787,Dansbury / Forestlawn,43.498,-80.4944,EasyGO3787
3788,Dansbury / Bridge,43.4965,-80.5013,EasyGO3788
3789,Bridge / Lexington,43.4986,-80.5039,EasyGO3789
3790,Bridge / Whitmore,43.5014,-80.507,EasyGO3790
3792,Blair / Esther,43.3749,-80.3397,EasyGO3792
3793,Princess / Rosslinn,43.3723,-80.3415,EasyGO3793
3794,Princess / Westcliff,43.3704,-80.3446,EasyGO3794
3795,Bismark / Westcliff,43.3693,-80.3407,EasyGO3795
3796,Bismark / Devils Creek,43.3706,-80.3372,EasyGO3796
3797,Cambridge Ctr. Terminal,43.3911,-80.3195,EasyGO3797
3798,Conestoga Mall Terminal,43.4982,-80.5293,EasyGO3798
3799,Conestoga Mall Terminal,43.4981,-80.5286,EasyGO3799
3800,Conestoga Mall Terminal,43.4984,-80.5291,EasyGO3800
3801,Conestoga College / Pinnacle,43.3859,-80.4124,EasyGO3801
3802,Conestoga College / Pinnacle,43.3855,-80.4129,EasyGO3802
3803,Conestoga College Residence,43.3844,-80.4112,EasyGO3803
3804,Conestoga College Residence,43.3842,-80.411,EasyGO3804
3805,Blair / Esther,43.3739,-80.3362,EasyGO3805
3806,Bishop / Hespeler,43.3949,-80.3258,EasyGO3806
3807,Farmers Market / Walmart,43.5107,-80.5494,EasyGO3807
3808,King / Printery,43.5281,-80.5553,EasyGO3808
3809,Sawmill / Parkside,43.5448,-80.5508,EasyGO3809
3810,Arthur / Union,43.5769,-80.563,EasyGO3810
3811,Arthur / Earl Martin,43.58092782,-80.56245428,EasyGO3811
3812,Arthur / South Field,43.584,-80.5621,EasyGO3812
3813,Arthur / Oriole,43.5891,-80.5614,EasyGO3813
3814,Arthur / Brubacher,43.5945,-80.5607,EasyGO3814
3815,Arthur / Park,43.5967,-80.5601,EasyGO3815
3816,Arthur / Wyatt,43.598,-80.5592,EasyGO3816
3817,Arthur / Mill,43.5993,-80.5581,EasyGO3817
3818,Church / Maple,43.6001,-80.5592,EasyGO3818
3819,Snyder / Church,43.6001,-80.5633,EasyGO3819
3820,Snyder / South,43.5969,-80.5637,EasyGO3820
3821,Snyder / Brubacher,43.5952453,-80.56395574,EasyGO3821
3822,Snyder / Second,43.5934,-80.5642,EasyGO3822
3823,First / Snyder,43.5923,-80.5634,EasyGO3823
3824,Arthur / Howard,43.5894,-80.5615,EasyGO3824
3825,Arthur / South Field,43.5845,-80.5623,EasyGO3825
3826,Arthur / South Parkwood,43.58078254,-80.56278738,EasyGO3826
3827,Arthur / Union,43.5773,-80.5632,EasyGO3827
3828,Sawmill / Parkside,43.5441,-80.5491,EasyGO3828
3829,King / Front,43.5406,-80.5534,EasyGO3829
3830,King / Cedar,43.5377,-80.5539,EasyGO3830
3831,King / Henry,43.5319,-80.5549,EasyGO3831
3832,King / Printery,43.5284,-80.5554,EasyGO3832
3833,Farmers Market / Benjamin,43.5099,-80.5558,EasyGO3833
3834,Farmers Market / Walmart,43.5102,-80.5495,EasyGO3834
3835,Bishop / Pineview,43.3915,-80.3441,EasyGO3835
3836,King / Lobsinger,43.5159,-80.5573,EasyGO3836
3837,Arthur / Gerrat,43.554798,-80.555367,EasyGO3837
3838,Arthur / Scotch Line,43.5671,-80.5613,EasyGO3838
3839,Arthur / Scotch Line,43.5671,-80.5615,EasyGO3839
3840,Arthur / Gerrat,43.55407,-80.555247,EasyGO3840
3841,King / Lobsinger,43.5154,-80.5576,EasyGO3841
3842,University / R.I.M.,43.51808,-80.513429,EasyGO3842
3843,Huron / Templewood,43.394361,-80.464395,EasyGO3843
3844,Huron / Templewood,43.394542,-80.464009,EasyGO3844
3845,Conestoga Transit Garage,43.394525,-80.316688,EasyGO3845
3847,King / Northland,43.503584,-80.535701,EasyGO3847
3848,King / Northland,43.503824,-80.535628,EasyGO3848
3849,Maple Grove / Vondrau,43.425376,-80.372999,EasyGO3849
3850,Bishop / Industrial,43.394304,-80.329605,EasyGO3850
3851,Bishop / Industrial,43.394335,-80.328684,EasyGO3851
3852,Baldwin / Osgoode,43.449195,-80.307709,EasyGO3852
3853,Baldwin / Horton,43.447597,-80.307184,EasyGO3853
3854,Baldwin / Henwood,43.44562,-80.306557,EasyGO3854
3855,Baldwin / Silverthorne,43.441675,-80.307278,EasyGO3855
3856,Baldwin / Scott,43.441746,-80.313094,EasyGO3856
3857,Franklin / Edward,43.426838,-80.309961,EasyGO3857
3858,Dunbar / Industrial,43.389283,-80.328698,EasyGO3858
3860,Avenue / Elgin,43.378732,-80.308561,EasyGO3860
3861,Cedar / St. Andrews,43.352326,-80.323958,EasyGO3861
3862,Cedar / Grand,43.353243,-80.317621,EasyGO3862
3863,Cedar / Grand,43.353423,-80.318077,EasyGO3863
3864,Cedar / Glenmorris,43.352572,-80.323319,EasyGO3864
3865,Waterloo C.I. 3,43.478211,-80.530307,EasyGO3865
3871,Brooklyne / Glen,43.37713648,-80.31332217,EasyGO3871
3873,Arthur / First,43.59256677,-80.5609297,EasyGO3873
3874,Westmount / Fischer-Hallman,43.40653086,-80.49884806,EasyGO3874
3877,954 Bishop St.,43.393269,-80.33465462,EasyGO3877
3878,Bishop / Mary,43.39304566,-80.33635571,EasyGO3878
3879,University / Westvale,43.44064392,-80.54948824,EasyGO3879
3880,University / Portsmouth,43.43923264,-80.55402629,EasyGO3880
3881,The Boardwalk Terminal,43.43548934,-80.56075635,EasyGO3881
3882,Davenport / Conestoga Mall,43.49833628,-80.52404641,EasyGO3882
3883,Ira Needles / University,43.43680048,-80.55961863,EasyGO3883
3884,Arthur / Rail Tracks,43.56160073,-80.55867874,EasyGO3884
3885,Arthur / Rail Tracks,43.56113001,-80.55868863,EasyGO3885
3886,Randall / Kumpf,43.50379002,-80.54507198,EasyGO3886
3887,King / Columbia,43.48346144,-80.52664198,EasyGO3887
3888,Conestoga College Cambridge Campus,43.385,-80.3979,EasyGO3888
3889,Holiday Inn / Groh,43.41904859,-80.32502126,EasyGO3889
3890,Fischer-Hallman / Columbia,43.46736757,-80.5656453,EasyGO3890
3891,Fischer-Hallman / Highland,43.43158487,-80.52537118,EasyGO3891
3892,Fischer-Hallman / Highland,43.43130729,-80.52544562,EasyGO3892
3893,Fischer-Hallman / Activa,43.41354628,-80.50791947,EasyGO3893
3894,Fischer-Hallman / Activa,43.41372455,-80.50847305,EasyGO3894
3895,Fischer-Hallman / Westmount,43.40671329,-80.50008786,EasyGO3895
3896,Fischer-Hallman / Westmount,43.40749039,-80.50154019,EasyGO3896
3898,Columbia / U.W.,43.475004,-80.545979,EasyGO3898
3899,Columbia / U.W.,43.474463,-80.546597,EasyGO3899
3900,Lexington / Davenport,43.49304914,-80.51257968,EasyGO3900
3901,The Boardwalk /Lifestyle Way,43.43764181,-80.56293175,EasyGO3901
3902,Path To Cardiff,43.43983571,-80.56279059,EasyGO3902
3903,Ira Needles / Thorndale,43.44232187,-80.56552234,EasyGO3903
3904,Ira Needles / Thorndale,43.44189421,-80.56529478,EasyGO3904
3905,Ira Needles / Erb,43.44609296,-80.57072706,EasyGO3905
3906,Ira Needles / Erb,43.44587377,-80.57091855,EasyGO3906
3907,Keats Way / Fischer-Hallman,43.458264,-80.55752562,EasyGO3907
3908,The Boardwalk Terminal,43.43555689,-80.56068206,EasyGO3908
3909,Westmount / Highland,43.43613716,-80.51460996,EasyGO3909
3910,Westmount / Victoria,43.43982592,-80.52107462,EasyGO3910
3911,Westmount / Brybeck,43.4436861,-80.52247756,EasyGO3911
3912,Westmount / Westwood,43.44686621,-80.52294682,EasyGO3912
3913,Westmount / Glasgow,43.44937787,-80.52357714,EasyGO3913
3914,Westmount / Union,43.45242637,-80.52570716,EasyGO3914
3915,Westmount / Highland,43.43610096,-80.51518674,EasyGO3915
3916,Westmount / Victoria,43.43916327,-80.52091147,EasyGO3916
3917,Westmount / Chopin,43.44311361,-80.5226481,EasyGO3917
3918,Westmount / Westwood,43.4463196,-80.52311848,EasyGO3918
3919,Westmount / Glasgow,43.44916674,-80.5236896,EasyGO3919
3920,Westmount / Union,43.45174835,-80.52536149,EasyGO3920
3921,Winston / Franklin,43.42135878,-80.31059817,EasyGO3921
3922,Winston / Gunn,43.42122453,-80.30496719,EasyGO3922
3923,Winston / Karl,43.42162639,-80.30178511,EasyGO3923
3924,Winston / Handorf,43.42121433,-80.29777978,EasyGO3924
3925,Winston / Cooper,43.42211744,-80.29244443,EasyGO3925
3926,Cooper / Adler,43.42588935,-80.29386548,EasyGO3926
3927,Ellis / Cooper,43.42757117,-80.29674236,EasyGO3927
3928,Ellis / Mclaughlin,43.42813027,-80.29383239,EasyGO3928
3929,Ellis / Kerwood,43.42899915,-80.28880628,EasyGO3929
3930,Jamieson / Townline,43.42496127,-80.28571255,EasyGO3930
3931,Jamieson / Lardner,43.4235277,-80.28729943,EasyGO3931
3932,Jamieson / Patton,43.4217898,-80.28857337,EasyGO3932
3934,Fountain / Marmel,43.40375819,-80.36998921,EasyGO3934
3935,Cherry Blossom / Fountain,43.41280927,-80.37510333,EasyGO3935
3936,Cherry Blossom / Saltsman,43.41420404,-80.37992952,EasyGO3936
3937,Cherry Blossom / Barnes,43.41580747,-80.384197,EasyGO3937
3939,Maple Grove / Cherry Blossom,43.41653631,-80.38718713,EasyGO3939
3940,Cherry Blossom / Saltsman,43.41401146,-80.37997156,EasyGO3940
3941,Fountain / A.T.S.,43.4086877,-80.37319514,EasyGO3941
3942,Fountain / Marmel,43.40383777,-80.37029467,EasyGO3942
3943,University / Phillip,43.4721483,-80.53571033,EasyGO3943
3944,Victoria,43.45283952,-80.498498,EasyGO3944
3945,University / Sunview,43.47315584,-80.53291488,EasyGO3945
3949,Laurelwood / Bearinger,43.47479787,-80.57253968,EasyGO3949
3950,Kitchener Train Station,43.45570086,-80.49198468,EasyGO3950
3951,Charles St. Terminal,43.44956518,-80.49253613,EasyGO3951
3953,Doon Mills / Woodsmere,43.38284978,-80.42851264,EasyGO3953
3954,Doon Village / Anvil,43.39077064,-80.4385429,EasyGO3954
3955,Doon Mills / Apple Ridge,43.38720124,-80.43541799,EasyGO3955
3956,Doon Mills / Pine Valley,43.38594918,-80.43144384,EasyGO3956
3957,Doon South / Forest Edge,43.38302172,-80.42697956,EasyGO3957
3958,Doon South / Winding Wood,43.3846252,-80.425973,EasyGO3958
3959,Doon South / Windrush,43.38730012,-80.42355542,EasyGO3959
3960,Conestoga College Door 3,43.39045962,-80.40360668,EasyGO3960
3961,Doon Village / Anvil,43.39069881,-80.43866257,EasyGO3961
3962,Doon Mills / Apple Ridge,43.38707129,-80.43526554,EasyGO3962
3963,Doon Mills / Pine Valley,43.38607613,-80.43183295,EasyGO3963
3964,Doon South / Forest Edge,43.38267139,-80.4270871,EasyGO3964
3965,Doon South / Winding Wood,43.38471895,-80.4257893,EasyGO3965
3966,Doon South / Windrush,43.38720924,-80.42329307,EasyGO3966
3967,Pinebush / Conestoga,43.40921608,-80.32212383,EasyGO3967
3968,Pinebush / Struck,43.41040054,-80.31548358,EasyGO3968
3969,Pinebush / Wayne,43.41105189,-80.31169579,EasyGO3969
3970,Pinebush / Franklin,43.41179383,-80.30774132,EasyGO3970
3971,Pinebush / Balmoral,43.41283051,-80.30128124,EasyGO3971
3972,Pinebush / Fleming,43.41389482,-80.29501613,EasyGO3972
3973,Pinebush / Thompson,43.415287,-80.28759566,EasyGO3973
3974,Thompson / Pinebush,43.41400978,-80.28603166,EasyGO3974
3975,Thompson / Lingard,43.41109353,-80.28922006,EasyGO3975
3976,Fleming / Thompson,43.41022247,-80.2933568,EasyGO3976
3977,Fleming / Sheldon,43.40901242,-80.2929864,EasyGO3977
3978,Sheldon / Thompson,43.40797615,-80.29634227,EasyGO3978
3979,Sheldon / Balmoral,43.4073519,-80.30007217,EasyGO3979
3980,Sheldon / Franklin,43.40644743,-80.30533112,EasyGO3980
3981,Sheldon / Wolseley,43.40478392,-80.30998342,EasyGO3981
3982,Sheldon / Wolseley,43.4030979,-80.31230274,EasyGO3982
3983,Sheldon / Corydon,43.40295415,-80.31530902,EasyGO3983
3984,Sheldon / Conestoga,43.40292133,-80.31869093,EasyGO3984
3985,505 Conestoga Blvd.,43.40055446,-80.31847364,EasyGO3985
3986,Conestoga / Bishop,43.3966919,-80.31750117,EasyGO3986
3987,Thompson / Lingard,43.41134492,-80.28852899,EasyGO3987
3988,Thompson / Pinebush,43.41373415,-80.28611642,EasyGO3988
3989,Pinebush / Thompson,43.41508764,-80.28747325,EasyGO3989
3999,Doon Mills / Woodsmere,43.38304436,-80.42879558,EasyGO3999
5008,Albert / University,43.47439,-80.532259,EasyGO5008
5009,Belmont / Glasgow,43.451441,-80.516842,EasyGO5009
